stop_id,stop_code,stop_name,stop_desc,stop_lat,stop_lon,zone_id,stop_url,location_type,parent_station
10000,5557,Teknologia - Parkea Itp,,43.2914,-2.8581,2,,0,
10001,4570,Olabe,,43.2835,-2.63222,5,,0,
10002,4088,Zaldu Pilotalekua / Frontón,,43.1763,-3.03193,3,,0,
10003,3176,La Tejera,,43.2187,-2.7397,3,,0,
10004,4656,Astelarra,,43.2821,-2.68586,4,,0,
10005,4971,Antonio Alzaga 19,,43.3231,-3.03354,2,,0,
10006,4917,Ugarte,,43.2918,-3.01605,2,,0,
10007,1032,Etxearte,,43.2646,-2.88998,1,,0,
10008,4598,Pulealde,,43.3476,-2.80323,3,,0,
10009,3172,San Miguel,,43.2182,-2.73051,3,,0,
10010,3789,Santa Krutz,,43.1611,-2.88302,3,,0,
10011,3549,Gernika 8 Abaro,,43.2236,-2.88867,2,,0,
10012,3790,Arbildu,,43.1637,-2.8879,3,,0,
10014,4216,Bidezabal Venancios,,43.358,-3.0094,2,,0,
10015,5087,El Carral,,43.2496,-3.15553,3,,0,
10016,0840,Plaza Levante Lehendakari Aguirre 172,,43.2818,-2.96282,1,,0,
10017,0409,Begoña Basilika,,43.259,-2.91359,1,,0,
10018,4854,Geltokia / Estacion Metro,,43.4019,-2.94654,3,,0,
10019,3903,Gipuzkoa Etorbidea 23,,43.1797,-2.49783,5,,0,
10020,4348,Astoreka Zabortegia / Vertedero,,43.2785,-2.77408,3,,0,
10021,4727,La Bilbaina Arritugane,,43.3202,-2.86216,3,,0,
10022,3499,Olarte El Regato Ikastetxea,,43.2675,-3.00279,2,,0,
10023,3280,Lepanto Lanbarketa,,43.2127,-2.88929,2,,0,
10024,5542,Iturribengoa,,43.3171,-2.98182,2,,0,
10025,3585,Landaida Anbulatorioa,,43.3692,-2.99846,2,,0,
10026,4673,Zabalondo Industrialdea,,43.3392,-2.86074,3,,0,
10027,3999,Soietxe,,43.3352,-2.80234,3,,0,
10028,3332,Lutxana Geltokia / Estación,,43.2881,-2.97566,2,,0,
10029,5323,Magdalenabidea Zubietakoerrota,,43.3181,-2.96897,2,,0,
10030,3178,Gudari,,43.2201,-2.73605,3,,0,
10031,5538,Eleizalde,,43.2975,-2.63773,5,,0,
10032,4171,Zugazarte 2 Marítimo,,43.3275,-3.01503,2,,0,
10033,3395,El Cantón,,43.1222,-3.12594,4,,0,
10034,4555,Zubibarri,,43.2344,-2.53166,5,,0,
10035,3298,Atxukarro Industrialdea 7 Poessa,,43.2155,-2.89082,2,,0,
10036,3273,Olabarri,,43.327,-2.75492,4,,0,
10037,3408,Luiando Barrena,,43.0691,-2.99919,4,,0,
10038,4679,Elordui,,43.3655,-2.82453,3,,0,
10039,4827,Ibarra,,43.0943,-2.86172,4,,0,
10040,3193,San Juan,,43.2187,-2.7305,3,,0,
10041,3266,Zuluaga Arakaldo,,43.1511,-2.94101,3,,0,
10042,5516,La Cuesta 59,,43.3481,-3.09018,3,,0,
10043,3971,La Olla,,43.2913,-3.12947,3,,0,
10044,4138,Los Chopos 40,,43.3443,-3.00049,2,,0,
10045,3445,La Cadena,,43.1365,-2.93586,4,,0,
10046,3353,Herriko Plaza Los Fueros 1,,43.2966,-2.98625,2,,0,
10047,5145,Apatamonasterio,,43.1295,-2.58447,5,,0,
10048,3450,Padura Hípika,,43.1628,-3.02579,4,,0,
10049,5161,Torre,,43.1024,-2.58096,5,,0,
10050,3626,Milloi Gane,,43.3121,-2.48096,5,,0,
10051,4749,La Cadena,,43.3306,-3.13517,3,,0,
10052,3823,Kaltzada,,43.1321,-2.74499,3,,0,
10053,4828,Aranguren,,43.0968,-2.86961,4,,0,
10054,4842,Zapateria,,43.1092,-2.9107,4,,0,
10055,3944,Artola,,43.2452,-2.80515,2,,0,
10056,4021,Udaletxea,,43.1937,-2.61144,4,,0,
10057,3391,Venta Los Aires Lekamaña,,43.0184,-3.01058,4,,0,
10058,9042,Las VIñas,,43.3282,-3.03362,2,,0,
10059,0235,Ernesto Erkoreka Plaza Udaletxea / Ayuntamiento,,43.2645,-2.9229,1,,0,
10060,1045,Mikoleta,,43.2663,-2.89898,1,,0,
10061,5564,Buenavista,,43.3207,-3.03073,2,,0,
10062,4198,Algortako Etorbidea 59,,43.3513,-3.01144,2,,0,
10063,5224,Arangoiti Zalla,,43.2119,-3.1077,3,,0,
10064,4852,Bide Zabala Sukarrieta,,43.3972,-2.69812,4,,0,
10065,0814,Basurto Ospitalea / Hospital Basurto,,43.2605,-2.9544,1,,0,
10066,3970,El Bentorro Arenao,,43.2804,-3.13954,3,,0,
10067,5146,Martzaa,,43.1228,-2.58703,5,,0,
10068,3931,Labeaga,,43.2239,-2.82031,2,,0,
10069,5186,San Andres,,43.1737,-2.54663,5,,0,
10070,9023,Geltokia / Estación,,43.3137,-2.67673,4,,0,
10071,4520,Urtiaga Industrialdea Larzep,,43.1876,-2.52412,5,,0,
10072,9037,Billela Torrontegi,,43.3731,-2.86067,3,,0,
10073,4522,Urtiaga Industrialdea Larzep,,43.1875,-2.52421,5,,0,
10074,4975,Capitán Mendizabal 48,,43.333,-3.03716,2,,0,
10075,4028,Gatika,,43.3626,-2.87417,3,,0,
10076,5546,Legazpi,,43.3021,-2.97437,2,,0,
10077,3528,Lasesarre,,43.303,-2.98524,2,,0,
10078,5459,Agarregane,,43.3462,-2.67991,4,,0,
10079,5044,El Kasko Plaza Gran Via,,43.3095,-3.00672,2,,0,
10080,5004,Antonio Alzaga 46,,43.3232,-3.0337,2,,0,
10081,5436,Galbarriatu,,43.2817,-2.8981,2,,0,
10082,5226,Ligueti,,43.2154,-3.13549,3,,0,
10083,3403,Arrespalditza / Respaldiza,,43.0767,-3.04403,4,,0,
10084,5216,La Herrera - Ijalde,,43.2038,-3.17089,3,,0,
10085,4880,Miguel De Unamuno Beilatokia / Tanatorio,,43.3146,-3.02259,2,,0,
10086,3641,Hormaztegi,,43.1771,-2.58185,5,,0,
10087,4474,Intzuntza Gasolindegia / Gasolinera,,43.2097,-2.78203,3,,0,
10088,4939,Funikular Kalea Udaletxea / Ayuntamiento,,43.3054,-3.03716,2,,0,
10089,4025,Garai,,43.3581,-2.88096,3,,0,
10090,4080,Molinar Plaza,,43.1797,-3.07354,3,,0,
10091,1062,Iberdrola,,43.2466,-2.98185,1,,0,
10092,5157,Axpe,,43.1159,-2.59848,5,,0,
10093,4506,Zubia,,43.3605,-2.49934,5,,0,
10094,3565,Zubialdea El Boquete,,43.244,-2.90378,2,,0,
10095,4771,Santelices,,43.3156,-3.12075,3,,0,
10096,4040,Gatika,,43.3627,-2.87433,3,,0,
10098,4677,Larrauri,,43.3673,-2.81051,3,,0,
10099,5208,Las Pedrajas,,43.204,-3.15976,3,,0,
10100,3901,Gipuzkoa Etorbidea 16 San Antonio,,43.1837,-2.49921,5,,0,
10101,5239,Mendieta Biribilgunea / Rotonda,,43.2119,-2.88326,2,,0,
10102,5530,La Cuesta Udaletxea / Ayuntamiento,,43.3459,-3.08843,3,,0,
10103,5439,Galbarriatu,,43.2819,-2.89778,2,,0,
10104,3611,Etxebizker Mikel Deuna,,43.4161,-2.75098,4,,0,
10105,5535,Zubiate,,43.3088,-2.64443,5,,0,
10106,3379,Saratxo Bidegurutzea / Cruce,,43.0301,-3.00678,4,,0,
10107,1042,Luis Briñas Termibus,,43.2609,-2.9489,1,,0,
10108,3551,Gernika 53 San Migel,,43.2185,-2.88692,2,,0,
10109,3168,San Antonio Elguezabal,,43.1985,-2.70407,3,,0,
10110,4875,Ramón Y Cajal Gasolindegia / Gasolinera,,43.3156,-3.02147,2,,0,
10111,4737,Zetokiz,,43.2937,-2.57156,5,,0,
10112,5555,Arriagane Industrialdea,,43.2279,-2.74964,3,,0,
10113,3873,L. Leguizamon Industrialdea Biribilgunea / Rotonda,,43.2512,-2.89132,2,,0,
10114,3909,Zubiaurre,,43.1911,-2.50163,5,,0,
10116,4129,Portua / Puerto,,43.4081,-2.9444,3,,0,
10117,4715,Iturribaltzaga,,43.3463,-2.83931,3,,0,
10118,3189,Boroa Ordainlekua / Peaje,,43.231,-2.75195,3,,0,
10119,4176,Algortako Etorb. 32 San Ignacio,,43.3435,-3.00808,2,,0,
10120,4071,Molinar Plaza,,43.1798,-3.07321,3,,0,
10121,4931,Funikularra Geltokia / Estación,,43.3015,-3.04172,2,,0,
10122,3754,Plaza Auzoa,,43.0988,-2.74963,4,,0,
10123,4530,Goitondogoikoa,,43.1985,-2.52892,5,,0,
10124,3132,Udaletxea / Ayuntamiento,,43.3214,-3.07314,3,,0,
10125,9008,Bolibar,,43.2497,-2.54922,5,,0,
10126,4492,Lastarri,,43.4021,-2.90753,3,,0,
10127,9036,Garibai,,43.0648,-2.48981,5,,0,
10128,3749,Zubizabal,,43.0514,-2.69783,4,,0,
10129,5505,Lasao,,43.2454,-2.9869,2,,0,
10130,5249,Tabernabarri,,43.3045,-2.88332,2,,0,
10131,5127,Brioketenes,,43.3698,-2.94225,3,,0,
10132,4672,Bolatoki,,43.3349,-2.86573,3,,0,
10133,4034,Garai,,43.3579,-2.88141,3,,0,
10134,3308,Bentalde,,43.4292,-2.80529,4,,0,
10135,3544,Artunduaga Kiroldegia / Polideportivo,,43.2332,-2.88165,2,,0,
10136,4732,Zetokiz,,43.2937,-2.57181,5,,0,
10137,3288,Txako,,43.185,-2.89642,3,,0,
10138,4678,Larrauri,,43.3671,-2.81118,3,,0,
10139,5351,Mezo 77 - 79 Bistalai,,43.315,-2.96993,2,,0,
10140,4981,El Calero,,43.3463,-3.0699,3,,0,
10141,4217,Bidezabal Metro,,43.3569,-3.01242,2,,0,
10142,4794,Zelaieta,,43.0439,-2.66217,5,,0,
10143,4089,Zaldu Pilotalekua / Frontón,,43.1767,-3.03187,3,,0,
10144,4701,Karmelo Etxegarai,,43.363,-2.85236,3,,0,
10145,4254,Lazkao Kilómetro 11,,43.2292,-3.01546,3,,0,
10146,3341,Resurrección María Azkue 34 La Ronda,,43.29,-2.99556,2,,0,
10148,4438,Artazagane Farmazia,,43.3325,-2.98937,2,,0,
10149,5033,Iberia,,43.3112,-3.00379,2,,0,
10150,3578,Axgane,,43.3588,-2.99839,2,,0,
10151,3184,Katia,,43.2374,-2.72399,3,,0,
10152,4329,Zatika Tres Cruces,,43.3612,-2.52135,5,,0,
10153,3407,Luiando Magaratxi,,43.0668,-2.99737,4,,0,
10154,4918,Ugarte El Juncal,,43.2914,-3.01477,2,,0,
10155,4887,Bizkaia Zubia / Puente Bizkaia,,43.3235,-3.0193,2,,0,
10156,4717,La Bilbaina Atxabaso,,43.3216,-2.85499,3,,0,
10157,4012,Ibarra,,43.3309,-2.80096,3,,0,
10159,4607,Usila Zubia / Puente Usila,,43.1841,-2.90025,3,,0,
10160,5017,Geltokia / Estación,,43.312,-3.06085,2,,0,
10161,5165,Elexalde,,43.2087,-2.80256,3,,0,
10162,3486,Cirilo Sagastagoitia,,43.2861,-2.98257,2,,0,
10163,4706,Ereñotzaga,,43.3816,-2.80167,3,,0,
10164,3529,Ansio,,43.2892,-2.98607,2,,0,
10165,4095,San José Zahar - Egoitza / Asilo,,43.1852,-3.06015,3,,0,
10166,0470,Zorrotza - Kastrexana 81 Flex,,43.2722,-2.97415,1,,0,
10167,4871,Begiratokia / Mirador,,43.3182,-3.01576,2,,0,
10168,1002,Egirleta / Santo Domingo,,43.2691,-2.90566,1,,0,
10170,5247,Hilerria / Cementerio,,43.2928,-2.89335,2,,0,
10171,9006,Megapark,,43.2937,-3.004,2,,0,
10172,3382,Udaletxea / Ayuntamiento,,43.0513,-3.00209,4,,0,
10173,5290,Faoeta,,43.2951,-2.95362,2,,0,
10174,3788,Telleritxu,,43.1583,-2.88167,3,,0,
10175,5008,Catalina Gibaja 23,,43.3106,-3.05653,2,,0,
10176,5188,Goierri,,43.1768,-2.53621,5,,0,
10177,4949,Elexalde,,43.2736,-2.83277,2,,0,
10178,4572,Ororoaga,,43.2935,-2.63419,5,,0,
10179,4924,Trapaga Auzoa,,43.2994,-3.01874,2,,0,
10180,3833,Landako,,43.1718,-2.63242,4,,0,
10181,0905,Maurice Ravel Panera,,43.2655,-2.91668,1,,0,
10182,4029,Sertutxa,,43.3594,-2.86819,3,,0,
10183,4238,Gallarraga Farmazia,,43.2017,-3.04869,3,,0,
10184,3290,Aguirre Martiartu Industrialdea,,43.1946,-2.89932,2,,0,
10185,4733,Astudi,,43.2902,-2.58121,5,,0,
10186,4293,Elejalde 7,,43.3897,-2.63144,5,,0,
10187,4493,Andraka,,43.3976,-2.90732,3,,0,
10188,3489,Zuloko,,43.292,-3.00277,2,,0,
10189,4578,Ibartxu,,43.281,-2.63044,5,,0,
10190,4592,Pulealde,,43.3475,-2.80316,3,,0,
10191,5118,Aita Gotzon Metro Urduliz,,43.3782,-2.95696,3,,0,
10192,4797,Mekoleta,,43.0453,-2.66939,5,,0,
10193,4637,Kurtzero Geltokia / Estación,,43.2882,-2.68946,4,,0,
10194,4613,Elosu,,43.1719,-2.89952,3,,0,
10195,3368,Resurrección María Azkue Bec,,43.2906,-2.991,2,,0,
10196,5523,Portua / Puerto,,43.3502,-3.08209,3,,0,
10197,3805,Ziarrusta,,43.1526,-2.76979,3,,0,
10198,4714,La Bilbaina Atxabaso,,43.3217,-2.85486,3,,0,
10199,3212,Susaeta,,43.2723,-2.59666,5,,0,
10200,4014,Etxezuri,,43.3177,-2.81531,3,,0,
10201,3329,Lutxana Geltokia / Estación,,43.2885,-2.97553,2,,0,
10202,5549,Arana Seat,,43.2955,-2.68662,4,,0,
10203,3174,Gumuzio,,43.2307,-2.76667,3,,0,
10204,4182,Algortako Etorb. 31 San Ignacio,,43.3437,-3.00842,2,,0,
10205,5430,Larragoiti,,43.281,-2.856,2,,0,
10206,4920,Babcock,,43.299,-3.01363,2,,0,
10207,4013,Ibarra,,43.3309,-2.80081,3,,0,
10208,3531,Argenta,,43.2862,-2.98003,2,,0,
10209,5443,Bidekurtze,,43.296,-2.8654,2,,0,
10210,3211,Urebei,,43.2745,-2.59366,5,,0,
10211,3857,Longa,,43.381,-2.60598,5,,0,
10212,4323,Elejalde,,43.3622,-2.54552,5,,0,
10213,4989,Iparragirre Iberdrola,,43.3402,-3.05251,2,,0,
10214,3816,Makaztui,,43.094,-2.71645,3,,0,
10215,3276,Goiri,,43.3418,-2.77504,3,,0,
10216,5501,Nuestra Señora De La Guía,,43.2356,-3.01215,2,,0,
10217,4957,Murrieta 13 Batzokia,,43.3272,-3.0279,2,,0,
10218,4083,Ugarte,,43.1923,-3.04549,3,,0,
10219,4857,Plentzia Biribilgunea / Rotonda,,43.4053,-2.94909,3,,0,
10220,1059,Deustuko Unibertsitatea Lehendakari Aguirre 2,,43.2716,-2.94281,1,,0,
10221,3128,Las Carreras Ambrosio De Los Heros 39,,43.319,-3.09789,3,,0,
10222,4796,Mekoleta,,43.0453,-2.67211,5,,0,
10223,3447,Areta Geltokia / Estación,,43.146,-2.94295,4,,0,
10224,5349,Mezo 48 Saliturri,,43.3151,-2.97322,2,,0,
10225,5086,Mercadillo Udaletxea / Ayuntamiento,,43.262,-3.15449,3,,0,
10226,5423,Izarza Eliza / Iglesia,,43.2973,-2.92582,2,,0,
10227,3037,Untzaga Hotel Arrate - Egogain Kalea,,43.1839,-2.47507,5,,0,
10228,4325,Zatika Tres Cruces,,43.361,-2.52124,5,,0,
10229,3525,San Bartolomé 1,,43.2951,-3.00129,2,,0,
10230,4851,Hegoalde,,43.106,-2.90888,4,,0,
10231,0813,Olabeaga Avda. Montevideo,,43.2647,-2.96124,1,,0,
10232,1038,Ibarrekolanda,,43.2733,-2.95355,1,,0,
10233,4082,Zubiete Txelus,,43.1863,-3.0579,3,,0,
10234,4687,Blankone,,43.3406,-2.80918,3,,0,
10235,4967,Udaletxea / Ayuntamiento,,43.3281,-3.03319,2,,0,
10236,3758,Olabarri,,43.1031,-2.75103,4,,0,
10237,5079,Eliza / Iglesia,,43.3804,-2.98376,3,,0,
10238,4925,Causo,,43.3,-3.0265,2,,0,
10239,3140,Sanfuentes 73,,43.3263,-3.07389,3,,0,
10240,3257,Gastaka,,43.1587,-2.93284,3,,0,
10241,0626,Zabalburu Autonomía 4,,43.2574,-2.93514,1,,0,
10242,4473,Estaziñoa,,43.2071,-2.7761,3,,0,
10243,3457,Irabien Vital Kutxa,,43.1552,-3.02673,4,,0,
10244,4553,Plazakola,,43.2971,-2.47603,5,,0,
10245,4248,La Cuadra,,43.2232,-3.02477,3,,0,
10246,5154,Ugalde,,43.111,-2.5912,5,,0,
10247,1023,Egirletagoikoa Gasolindegia / Gasolinera,,43.2739,-2.90349,1,,0,
10248,5014,Etxaba,,43.3075,-3.04654,2,,0,
10249,3547,Kareaga Goikoa 26 Burritos,,43.2377,-2.89434,2,,0,
10250,9003,Oruezabaleta,,43.1754,-2.60677,4,,0,
10251,4011,Garellano,,43.3376,-2.80482,3,,0,
10252,3751,Barazar,,43.0658,-2.71146,4,,0,
10253,4203,Gorbeia Mendia,,43.3294,-3.00636,2,,0,
10254,4529,Apoita,,43.2069,-2.55233,5,,0,
10255,4606,Torre De Ugao 3,,43.1816,-2.90225,3,,0,
10256,5340,San Ignazio 8 - 10,,43.3031,-2.97453,2,,0,
10257,9005,Megapark,,43.2937,-3.0042,2,,0,
10258,3772,Zubibarria,,43.1468,-2.843,3,,0,
10259,0224,Ernesto Erkoreka Plaza Udaletxea / Ayuntamiento,,43.2641,-2.92259,1,,0,
10260,4778,Iturrizar,,43.3231,-3.12299,3,,0,
10261,4793,Ospital Kalea,,43.0401,-2.65279,5,,0,
10262,4115,Orabille,,43.4171,-2.91728,3,,0,
10263,4039,Urondo,,43.3742,-2.88954,3,,0,
10264,3362,Bide - Onera Los Fueros,,43.2954,-2.98791,2,,0,
10265,4697,La Bilbaina Auzo - Etxea / Centro Cívico,,43.3266,-2.85057,3,,0,
10266,5374,Altzaga Ikastola,,43.2986,-2.97162,2,,0,
10267,4042,Igartua,,43.377,-2.88505,3,,0,
10268,5021,Bañales,,43.313,-3.06441,2,,0,
10269,5173,Elexalde,,43.1628,-2.77902,3,,0,
10270,5455,Teknologia - Parkea Arteaga,,43.2854,-2.85807,2,,0,
10271,4536,Iruzubieta,,43.253,-2.52707,5,,0,
10272,3498,Ureta Ponto,,43.2706,-2.99586,2,,0,
10273,3500,El Regato / Errekatxo Eliza / Iglesia,,43.2635,-3.01495,2,,0,
10274,4349,Sarrikola,,43.2547,-2.79836,3,,0,
10275,3366,Retuerto Av. Euskadi,,43.2845,-2.99491,2,,0,
10276,3649,Eitua Industrialdea Pastor Gorbea,,43.1673,-2.59271,5,,0,
10277,5338,Altzaga - Erandiogoikoa Arriaga,,43.3035,-2.96688,2,,0,
10278,3536,San Telmo,,43.4037,-2.95401,3,,0,
10279,3587,Lamera,,43.4189,-2.72246,4,,0,
10280,3563,Agirre Lehendakaria 73 Ariz Dorretxea,,43.2361,-2.88134,2,,0,
10281,5121,Mendi Ondo Eskolak / Escuelas,,43.3676,-2.93848,3,,0,
10282,1008,Zunzunegi,,43.262,-2.949,1,,0,
10283,3866,La Avenida,,43.2485,-2.88547,2,,0,
10284,1040,Ibarsusi,,43.2505,-2.90194,1,,0,
10285,4653,Oka,,43.2663,-2.68621,4,,0,
10286,5084,Castaño Nuevo,,43.2787,-3.16462,3,,0,
10287,4546,Markina Plaza,,43.2671,-2.49733,5,,0,
10288,5418,Basozabal,,43.2988,-2.92332,2,,0,
10289,5451,Ospitale Psikiatrikoa / Hospital Psiquiátrico,,43.2898,-2.85425,2,,0,
10290,4481,Larrabeiti,,43.2039,-2.77315,3,,0,
10291,4518,Urtiaga Industrialdea Tva,,43.1853,-2.5153,5,,0,
10292,4440,Negurigane,,43.335,-2.99824,2,,0,
10293,4185,Zugazarte Triángulo,,43.3361,-3.01002,2,,0,
10294,3539,Ziarreta Cantabrico,,43.4041,-2.96857,3,,0,
10295,4836,Uribiarte,,43.0697,-2.9238,4,,0,
10296,4635,Ariatza,,43.2709,-2.68532,4,,0,
10297,5437,Bilbobarri,,43.2874,-2.89133,2,,0,
10298,4092,Isuskitza Hipika,,43.1696,-3.02863,3,,0,
10299,4640,Oka,,43.2665,-2.68601,4,,0,
10300,5342,Obieta 33,,43.3041,-2.97139,2,,0,
10301,4174,Algortako Etorb. 12 Regoyos,,43.3392,-3.00861,2,,0,
10302,5203,Otxaran,,43.22,-3.16803,3,,0,
10303,3429,Tubacex,,43.1337,-2.9714,4,,0,
10304,4111,Andra Mari 5,,43.4131,-2.93534,3,,0,
10305,3638,Parrokia,,43.1765,-2.57644,5,,0,
10306,3270,Olatxu,,43.3279,-2.76149,3,,0,
10307,3556,Kareaga Goikoa 11 El Calero,,43.239,-2.89828,2,,0,
10308,3385,Tubos Reunidos,,43.049,-3.00395,4,,0,
10309,3612,Etxebizker Mikel Deuna,,43.416,-2.7509,4,,0,
10310,4341,Goikolexea,,43.2671,-2.78451,3,,0,
10311,5092,La Jara,,43.2736,-3.14829,3,,0,
10313,1001,Alameda Recalde 29,,43.2642,-2.93435,1,,0,
10314,3278,Goiri,,43.3419,-2.77473,3,,0,
10315,3634,Uribe,,43.1666,-2.55895,5,,0,
10316,5137,Avda. Encartaciones,,43.1895,-3.20044,4,,0,
10317,4756,La Cadena,,43.3305,-3.13536,3,,0,
10318,3216,Matxinena,,43.2778,-2.62409,5,,0,
10319,3194,San Juan,,43.2189,-2.73077,3,,0,
10320,5142,Atxondo Geltokia / Estación,,43.1315,-2.58507,5,,0,
10321,3650,San Cristobal,,43.3679,-2.69427,4,,0,
10322,0207,Maurice Ravel Begiratokia / Mirador,,43.2696,-2.92241,1,,0,
10323,4178,Telletxe 2 Geltokia / Estación,,43.3513,-3.00944,2,,0,
10324,3595,Dondiz,,43.3934,-2.77081,4,,0,
10325,4795,Zelaieta,,43.0439,-2.66308,5,,0,
10326,1021,Egirletabekoa Baserriak / Caserios,,43.2779,-2.9008,1,,0,
10327,3877,Etxebarria,,43.2544,-2.47753,5,,0,
10328,5462,Elejalde,,43.3395,-2.65483,5,,0,
10329,3591,Harrizurieta,,43.3882,-2.7713,4,,0,
10330,3786,Olatxu,,43.1544,-2.87474,3,,0,
10331,4434,Artatzagane Farmazia,,43.3325,-2.98898,2,,0,
10332,0111,Sarriko Lehendakari Aguirre 88,,43.2748,-2.95867,1,,0,
10333,4648,Etxe Barriak,,43.2917,-2.70234,4,,0,
10334,4367,Aurrekoetxe,,43.3493,-2.89946,3,,0,
10335,0837,San Ignacio Lehendakari Aguirre 147,,43.2777,-2.96082,1,,0,
10336,5049,El Kasko Plaza Las Llanas,,43.3089,-3.00745,2,,0,
10337,3443,Anuntzibai Elkartegi,,43.1431,-2.94086,4,,0,
10338,3875,L. Leguizamon Industrialdea Bidegurutzea / Cruce,,43.2488,-2.89482,2,,0,
10339,4562,Udaletxea,,43.3794,-2.86735,3,,0,
10340,4084,Zubiete 56 Isasi,,43.1881,-3.05471,3,,0,
10341,4015,Etxezuri,,43.3175,-2.81512,3,,0,
10342,4075,Artekona,,43.1502,-3.10574,3,,0,
10343,3125,El Casal,,43.3221,-3.07237,3,,0,
10344,3337,Kareaga,,43.2866,-3.00411,2,,0,
10345,3630,Aierdi,,43.317,-2.4785,5,,0,
10346,4101,Albitxu,,43.1438,-3.10945,3,,0,
10347,4708,Lauaxeta,,43.3569,-2.85043,3,,0,
10348,4883,Doctor Areilza Parkea,,43.325,-3.02077,2,,0,
10349,4102,Albitxu,,43.1437,-3.10931,4,,0,
10350,5082,Urgitxieta,,43.3755,-2.99004,3,,0,
10351,0231,San Isidro,,43.2607,-2.91259,1,,0,
10352,4208,Mayor Kalea 28 Metro,,43.3267,-3.01161,2,,0,
10353,4515,Goitondobekoa Hambre,,43.1943,-2.52107,5,,0,
10354,5337,Altzaga - Erandiogoikoa Artetxe,,43.303,-2.96092,2,,0,
10355,0265,Kastrexana,,43.2569,-2.97051,1,,0,
10356,4475,Mendieta,,43.2099,-2.79202,3,,0,
10357,0209,Maurice Ravel Teléfonica,,43.2679,-2.91852,1,,0,
10358,4605,Torre De Ugao Geltokia / Estación,,43.1795,-2.90241,3,,0,
10359,4133,Aitzondo Ospitalea / Hospital,,43.4189,-2.94372,3,,0,
10360,3639,Vera Cruz Komentua / Convento,,43.1821,-2.57429,5,,0,
10361,3427,Zumalakarregi Egoitza / Residencia,,43.1403,-2.96567,4,,0,
10362,4583,Zelaia,,43.3466,-2.48754,5,,0,
10363,4773,Nesilla,,43.3057,-3.12115,3,,0,
10364,4157,Azkorri,,43.3773,-3.00882,2,,0,
10365,3930,Aperribai,,43.2405,-2.87382,2,,0,
10366,3197,Karmen 3,,43.2206,-2.73289,3,,0,
10367,3968,Altzadi Plaza,,43.233,-2.84424,2,,0,
10368,4361,Iturrikoetxe,,43.2611,-2.79718,3,,0,
10369,4172,Zugazarte 38 Reparadoras,,43.3318,-3.01174,2,,0,
10370,4299,Ibinaga Los Angeles,,43.3971,-2.63366,5,,0,
10371,3859,Kukullaga,,43.2465,-2.88777,2,,0,
10372,3287,Txako,,43.1843,-2.89742,2,,0,
10373,5213,Mimetiz Udaletxea / Ayuntamiento,,43.2143,-3.13389,3,,0,
10374,3255,Arene Anbulatorioa,,43.1725,-2.92024,3,,0,
10375,1033,Gran Vía 46 Sota,,43.2635,-2.93702,1,,0,
10376,4356,Andra Mari Elkartegi,,43.2584,-2.79629,3,,0,
10377,4630,Zugarreta,,43.3131,-2.74693,3,,0,
10378,3810,Arostegieta,,43.1296,-2.74549,3,,0,
10379,4018,Aiartza - Sarria,,43.1841,-2.6044,5,,0,
10381,0301,Zabalbide Ur Depositua / Depósito Aguas,,43.258,-2.91097,1,,0,
10383,3756,Zulaibar,,43.107,-2.75662,4,,0,
10384,4488,Zubitxu Hilerria / Cementerio,,43.4086,-2.90311,3,,0,
10385,5364,La Avanzada Ertzaintza,,43.3092,-2.95875,2,,0,
10386,3303,Otsategi,,43.4132,-2.81367,4,,0,
10387,4091,Etxebarrria,,43.1785,-3.03718,3,,0,
10388,3953,Olabarrieta Poblado Firestone,,43.2373,-2.87119,2,,0,
10389,4980,Landeta San Juan,,43.3378,-3.04624,2,,0,
10390,5316,Magdalenabidea Zubietakoerrota,,43.3177,-2.96829,2,,0,
10391,5043,Kueto Gran Vía,,43.3082,-3.00194,2,,0,
10392,5010,Urioste,,43.3093,-3.04132,2,,0,
10393,4633,Errota,,43.2988,-2.74478,3,,0,
10394,3364,Resurrección María Azkue 12,,43.2909,-2.99101,2,,0,
10395,4496,Agarrabesko,,43.4206,-2.91269,3,,0,
10396,3546,Kareaga Goikoa 12 El Calero,,43.2385,-2.89717,2,,0,
10397,3355,Beurko Av. Miranda 2,,43.2986,-2.99368,2,,0,
10398,4979,Parkea / Parque Arkupeak / Soportales,,43.3283,-3.03214,2,,0,
10399,4805,Kamiñazpi,,43.3214,-2.43356,5,,0,
10400,5053,Rivas Gran Via,,43.3079,-2.99364,2,,0,
10401,4132,Mungia Bidea,,43.4046,-2.94341,3,,0,
10402,3375,Aldaiturriaga,,43.0373,-3.00636,4,,0,
10403,4897,La Florida,,43.3178,-3.02634,2,,0,
10404,3596,Zubiaur´Tar Kepa Udal Azoka,,43.4196,-2.72795,4,,0,
10405,3196,Tantorta,,43.2255,-2.74372,3,,0,
10406,3564,Mercabilbao,,43.2312,-2.88539,2,,0,
10407,3785,Olatzar,,43.1525,-2.87049,3,,0,
10409,4922,Babcock El Juncal,,43.2978,-3.01352,2,,0,
10410,9009,Bolibar,,43.2496,-2.54927,5,,0,
10411,3520,Max Center N - 634,,43.2877,-3.00697,2,,0,
10412,1026,Enrique Ibarreta Santutxu,,43.2547,-2.91014,1,,0,
10413,3818,Bernaola,,43.1226,-2.73844,3,,0,
10414,4914,Primero De Mayo 32,,43.3014,-3.03367,2,,0,
10415,5481,Maspe 4,,43.1739,-2.63889,4,,0,
10416,1017,Aixerrota / El Molino,,43.2784,-2.93463,2,,0,
10417,3127,Las Carreras Ambrosio De Los Heros 42,,43.3191,-3.09778,3,,0,
10418,4716,Iturribaltzaga,,43.3456,-2.83813,3,,0,
10420,9014,Triano,,43.2956,-3.06856,2,,0,
10421,4750,La Rigada,,43.3358,-3.14328,3,,0,
10422,3632,Bekokale,,43.3119,-2.46375,5,,0,
10423,4625,Andra Mari,,43.3,-2.75286,3,,0,
10424,5558,Teknologia - Parkea Euskaltel,,43.2945,-2.8612,2,,0,
10425,3862,Udaletxea / Ayuntamiento,,43.2454,-2.8938,2,,0,
10426,2195,Zabalburu Juan De Garay,,43.2563,-2.93322,1,,0,
10427,4073,Las Llanas Plaza,,43.1614,-3.10352,3,,0,
10428,5177,Igorreko Industrialdea,,43.1583,-2.77317,3,,0,
10429,4543,Egi,,43.3012,-2.47319,5,,0,
10430,5288,Faoeta,,43.2948,-2.9532,2,,0,
10431,3906,Zeharkalea 1,,43.1864,-2.50488,5,,0,
10432,1018,Ostalaritza Eskola / Escuela Hosteleria,,43.2797,-2.94147,1,,0,
10433,1022,Egirletabekoa Baserriak / Caserios,,43.2779,-2.90112,1,,0,
10434,3949,Zuazo,,43.2291,-2.85332,2,,0,
10435,4755,La Rigada,,43.3359,-3.14393,3,,0,
10436,5271,Mendikoi Hotel Laia,,43.2934,-2.87289,2,,0,
10437,4309,Ibinaga Los Angeles,,43.3971,-2.63379,5,,0,
10438,0608,Gran Via 63 Renault,,43.2641,-2.94072,1,,0,
10439,0603,San José Plaza Elcano 5,,43.264,-2.9356,1,,0,
10440,5327,Altzaga - Erandiogoikoa Basabe,,43.3014,-2.96898,2,,0,
10441,4769,Kiroldegia / Polideportivo,,43.3224,-3.11814,3,,0,
10442,0113,Sarrikoko Biribilgunea / Rotonda De Sarriko,,43.2734,-2.95537,1,,0,
10443,4117,Elexalde Udaletxea / Ayuntamiento,,43.415,-2.93302,3,,0,
10444,3884,Gurutziaga,,43.1277,-2.53989,5,,0,
10445,5514,Valle,,43.3422,-3.08326,3,,0,
10446,3117,Astola,,43.1613,-2.61187,4,,0,
10447,4350,Sarrikola,,43.2546,-2.79849,3,,0,
10448,5058,Vía Galindo 12 Inem,,43.3069,-3.00842,2,,0,
10449,4317,Apraiz,,43.3875,-2.63149,5,,0,
10450,4268,Lorategieta,,43.3193,-2.66884,4,,0,
10451,4339,Larrabetzu,,43.2618,-2.7962,3,,0,
10452,3646,Eitua Industrialdea Pastor Gorbea,,43.1671,-2.59281,5,,0,
10453,4845,Okeluri,,43.1177,-2.91131,4,,0,
10454,3167,Euba,,43.1956,-2.69672,3,,0,
10455,4671,Beasko - Maurolas,,43.3289,-2.8703,3,,0,
10456,3963,Anbulatorioa,,43.234,-2.8446,2,,0,
10457,3381,Alturriaga,,43.0436,-3.00453,4,,0,
10458,4968,Igerilekuak / Piscinas,,43.3275,-3.02701,2,,0,
10459,4663,Trobika Auzoa,,43.3587,-2.8353,3,,0,
10460,4364,Modesene Hilerria / Cementerio,,43.3555,-2.91181,3,,0,
10461,3283,Aixarte Bekoa Ikastola,,43.2044,-2.89268,2,,0,
10462,5424,Asua Plaza Sangroniz,,43.3008,-2.94151,2,,0,
10463,5076,Atxabiribil Bidegurutzea / Cruce,,43.3855,-2.98433,3,,0,
10464,3822,Kaltzada,,43.1329,-2.7456,3,,0,
10465,4038,Ugarte,,43.3664,-2.87736,3,,0,
10466,3820,Santuru,,43.1482,-2.76288,3,,0,
10467,3950,Olabarrieta Poblado Firestone,,43.2373,-2.87085,2,,0,
10468,4239,Sodupe Herriko Enparantza,,43.2001,-3.04844,3,,0,
10469,4893,Errepelega / Repelega Anbulatorioa,,43.3144,-3.01657,2,,0,
10470,4352,Gaztelu,,43.2718,-2.78378,3,,0,
10471,5197,Zubia / Puente Geltokia / Estación,,43.2238,-3.16933,3,,0,
10472,4187,Areeta 9 Eliza / Iglesia,,43.3267,-3.01573,2,,0,
10473,5315,Ibañez Betolatza,,43.2955,-2.96885,2,,0,
10474,4491,Olalde,,43.4166,-2.90469,3,,0,
10475,4730,Angiz,,43.3038,-2.54623,5,,0,
10476,5369,Asua La Avanzada 9,,43.3027,-2.94639,2,,0,
10477,5440,Vizcaya Ikastetxea,,43.2844,-2.89585,2,,0,
10478,3114,Zelaieta,,43.1504,-2.61061,4,,0,
10479,4765,Pobeña,,43.3452,-3.12578,3,,0,
10480,4690,Blankone,,43.3407,-2.80933,3,,0,
10481,3333,Los Angeles Auzoa,,43.2821,-2.98026,2,,0,
10482,0624,La Casilla Autonomia 50,,43.2578,-2.94288,1,,0,
10483,1044,Lutxana Ribera De Elorrieta,,43.2884,-2.96929,1,,0,
10484,5438,Bilbobarri,,43.2874,-2.89225,2,,0,
10485,9000,Carlos VII Los Angeles Kafetegia,,43.3171,-3.02274,2,,0,
10486,0902,Plaza Levante Lehendakari Aguirre 179,,43.2818,-2.96312,1,,0,
10487,4195,Salsidu 39 Getxoi,,43.3536,-3.0043,2,,0,
10488,1048,Orueta,,43.2653,-2.90274,1,,0,
10489,3115,Zubibitarte,,43.1685,-2.6122,4,,0,
10490,3972,La Olla,,43.2905,-3.1299,3,,0,
10491,4718,La Bilbaina Urbide,,43.3292,-2.85214,3,,0,
10492,4399,Ondiz,,43.3275,-2.99124,2,,0,
10493,5277,Jose Luis Goioaga Axpeko Dartsena,,43.309,-2.97727,2,,0,
10494,3396,Plaza Garay Junto Al Ayuntamiento,,43.1221,-3.13056,4,,0,
10495,3637,Iturritza,,43.1698,-2.57479,5,,0,
10496,3629,Atxurra,,43.3244,-2.4932,5,,0,
10497,4913,Primero De Mayo Udaletxea / Ayuntamiento,,43.3046,-3.0369,2,,0,
10498,4886,Doctor Areilza Parkea,,43.3251,-3.021,2,,0,
10499,3131,Las Postas,,43.3215,-3.06833,3,,0,
10500,5151,Arrazola Elizondo,,43.1002,-2.5803,5,,0,
10501,4442,Luis Bilbao Libano,,43.323,-2.9859,2,,0,
10502,3853,Biax,,43.382,-2.57659,5,,0,
10503,4523,Mallabarrena,,43.1876,-2.52951,5,,0,
10504,4365,Elizalde,,43.3523,-2.90779,3,,0,
10505,4631,Zugarreta,,43.3131,-2.74672,3,,0,
10506,5169,Bolibar Egoitza,,43.1193,-2.76811,4,,0,
10507,3738,Ugarte,,43.128,-2.77827,3,,0,
10508,3923,Erletxeta Jatetxea,,43.2365,-2.80535,2,,0,
10509,4426,Ehu Oteiza Plaza,,43.331,-2.97014,2,,0,
10510,5525,Digipen Cabot,,43.3506,-3.07664,3,,0,
10511,4266,Saraspe Plaza,,43.3117,-2.67889,4,,0,
10512,5299,Erandiogoikoa,,43.3081,-2.95446,2,,0,
10513,4873,La Florida,,43.318,-3.02642,2,,0,
10514,5090,Mercadillo 26,,43.2644,-3.15322,3,,0,
10515,4453,Artea,,43.3421,-2.99244,2,,0,
10516,4043,Igartua,,43.3768,-2.88554,3,,0,
10517,5285,Ribera De Erandio,,43.2966,-2.97409,2,,0,
10518,3886,San Agustín,,43.1309,-2.55867,5,,0,
10519,4393,Santimami Eroski,,43.3192,-2.9739,2,,0,
10520,4542,Egi,,43.304,-2.47204,5,,0,
10521,4002,Gamiz,,43.3268,-2.81832,3,,0,
10522,4786,Autonomía,,43.3193,-3.12298,3,,0,
10523,3537,San Telmo,,43.4041,-2.95363,3,,0,
10524,5166,Gane,,43.2123,-2.8102,3,,0,
10525,4822,Atxondo,,43.1288,-2.92322,4,,0,
10526,5125,Mendi Ondo Gasolindegia / Gasolinera,,43.366,-2.92885,3,,0,
10527,4401,Donibane / San Juan Kontserbatorioa,,43.3239,-2.98429,2,,0,
10528,4881,Errepelega / Repelega,,43.3139,-3.01653,2,,0,
10529,5541,Lexartza,,43.3149,-2.6533,5,,0,
10530,4766,Geltokia / Estación,,43.3219,-3.11287,3,,0,
10531,3192,Ategorri,,43.2269,-2.73093,3,,0,
10532,3433,Altui,,43.122,-2.98343,4,,0,
10533,4215,Bidezabal Metro,,43.3568,-3.0121,2,,0,
10534,4632,Errota,,43.299,-2.74513,3,,0,
10535,4731,Aulestia Plaza,,43.2972,-2.56286,5,,0,
10536,3369,San Ignacio Vicente Alexandre,,43.2838,-2.99043,2,,0,
10537,3256,Arbide,,43.1624,-2.93091,3,,0,
10538,4664,Billela,,43.3707,-2.8565,3,,0,
10539,4269,Lorategieta,,43.3192,-2.66823,5,,0,
10540,5184,Avenida Bilbao,,43.1699,-2.54933,5,,0,
10541,5513,Portua / Puerto,,43.3504,-3.08205,3,,0,
10542,5519,La Arena / Ondarra,,43.3488,-3.11235,3,,0,
10543,3532,Goierri,,43.3956,-2.97406,3,,0,
10544,5297,Altzaga - Erandiogoikoa Irubideta,,43.3045,-2.96228,2,,0,
10545,4358,Iturrikoetxe,,43.2608,-2.79712,3,,0,
10546,4142,Ollaretxe 33 El Redentor,,43.3561,-3.00721,2,,0,
10547,3156,Particular De San Pedro,,43.2241,-2.73923,3,,0,
10548,4188,Bizkaia Zubia / Puente Bizkaia,,43.3238,-3.01558,2,,0,
10549,5253,Tabernabarri,,43.3049,-2.88332,2,,0,
10550,4007,Duene,,43.3234,-2.81635,3,,0,
10551,3338,Kareaga,,43.2864,-3.00415,2,,0,
10552,4740,Bengoetxe,,43.3223,-2.54191,5,,0,
10553,4279,Lariz,,43.3401,-2.52331,5,,0,
10554,5305,Saratseta,,43.299,-2.9639,2,,0,
10555,4202,Ibaizabal Txikia Plaza,,43.3506,-3.00288,2,,0,
10556,5171,Urkizu,,43.1837,-2.77446,3,,0,
10557,5024,Nocedal,,43.319,-3.06232,2,,0,
10558,4079,Sandamendi,,43.1779,-3.07946,3,,0,
10559,4470,Bolunburu,,43.2124,-2.75701,3,,0,
10560,4801,Kamiñazpi,,43.3214,-2.43104,5,,0,
10561,3203,Oleta,,43.3437,-2.5054,5,,0,
10562,4702,Karmelo Etxegarai,,43.363,-2.85218,3,,0,
10563,3263,Bakiola,,43.1794,-2.91414,3,,0,
10564,3169,Ibarguren,,43.2026,-2.71189,3,,0,
10565,4948,Uzabal Athletic,,43.2758,-2.84281,2,,0,
10566,3577,Lantzarte,,43.361,-2.99709,2,,0,
10567,4933,Galindo,,43.305,-3.01653,2,,0,
10568,3958,Kortederra,,43.2311,-2.7788,2,,0,
10569,3849,Bedarona,,43.3775,-2.57066,5,,0,
10570,3592,Sollube Gane,,43.405,-2.76035,4,,0,
10571,0539,Zumalakarregi Panera,,43.2647,-2.91859,1,,0,
10572,5036,Chavarri 111 Arboleda,,43.3123,-3.0076,2,,0,
10573,3147,Los Heros,,43.3293,-3.07283,3,,0,
10574,3742,Igertza,,43.1367,-2.7978,3,,0,
10575,4742,Mendikoetxe,,43.3149,-2.54084,5,,0,
10576,3163,Euba,,43.1956,-2.69722,3,,0,
10577,4579,Elexalde,,43.3458,-2.48566,5,,0,
10578,3540,Azalakopozo Bideondo,,43.4015,-2.97188,3,,0,
10579,3783,Zautuola,,43.1477,-2.85548,3,,0,
10580,4932,Funikular Kalea,,43.3036,-3.03857,2,,0,
10581,4870,General Castaños 19,,43.3202,-3.01938,2,,0,
10582,3648,Eitua Industrialdea Estampados,,43.1672,-2.58505,5,,0,
10583,4477,Zubi Ziku,,43.2062,-2.77103,3,,0,
10584,5403,Aireportua / Aeropuerto Irteerak / Salidas,,43.3053,-2.90556,2,,0,
10585,0401,Zumalakarregi Etxebarria Parkea,,43.2607,-2.91486,1,,0,
10586,4096,Sandamendi Pontón,,43.1789,-3.08501,3,,0,
10587,4681,Zabalondo Industrialdea,,43.3394,-2.86081,3,,0,
10588,3441,Areta Eliza / Iglesia,,43.1472,-2.94439,4,,0,
10589,4191,Av. Del Angel 18,,43.3586,-3.01619,2,,0,
10590,5269,Geldo,,43.3001,-2.8717,2,,0,
10591,5149,Santiago,,43.109,-2.58475,5,,0,
10592,4272,Errenteria,,43.318,-2.67459,4,,0,
10593,4482,Lastarri,,43.4022,-2.9072,3,,0,
10594,9025,Gallarta,,43.3176,-3.07511,3,,0,
10595,5309,Erandiondo,,43.3032,-2.95508,2,,0,
10596,3394,Garay 25 Gasolinera,,43.1235,-3.12208,4,,0,
10597,4006,Bekoetxebarri,,43.3138,-2.81324,3,,0,
10598,3765,Telleritxu,,43.1582,-2.88179,3,,0,
10599,5148,Artzia,,43.1118,-2.58606,5,,0,
10600,9032,Mijoa Industrialdea,,43.3082,-2.39754,5,,0,
10601,3294,Severo Ochoa Kiroldegia / Polideportivo,,43.2099,-2.88659,2,,0,
10602,5457,Elejalde,,43.3353,-2.67638,4,,0,
10603,3123,Lebario,,43.1658,-2.60471,4,,0,
10604,5425,Berreteaga,,43.298,-2.91911,2,,0,
10605,4627,Aretxabalegana Morga Gane,,43.2838,-2.75777,3,,0,
10606,0627,Autonomía 20,,43.2575,-2.93791,1,,0,
10607,5296,Magdalenabidea Ikatza,,43.3244,-2.95818,2,,0,
10608,4161,Zientoetxe 9 Karmelitak / Carmelitas,,43.3665,-3.01806,2,,0,
10609,4586,Emerando,,43.3804,-2.79079,3,,0,
10610,3844,Altxikerre,,43.3808,-2.5828,5,,0,
10611,4580,Zelaia,,43.3466,-2.48718,5,,0,
10612,5504,Loibe,,43.2435,-2.99178,2,,0,
10613,5218,Ibarra La Madalena,,43.2047,-3.14439,3,,0,
10614,5019,San Antón,,43.3083,-3.03416,2,,0,
10615,3139,El Bao,,43.3212,-3.08075,3,,0,
10616,4906,San Juan De Dios Ospitalea / Hospital,,43.3248,-3.02353,2,,0,
10618,4419,Iturriondo Metro Leioa,,43.3186,-2.99135,2,,0,
10619,4987,Sabino Arana,,43.3304,-3.03524,2,,0,
10620,0267,Kastrexana Industrialdea,,43.2613,-2.97156,1,,0,
10621,3804,Artzubi,,43.147,-2.75939,3,,0,
10622,4045,Herriko Enparantza 28,,43.3498,-2.65167,5,,0,
10623,4832,Beraza,,43.1052,-2.90483,4,,0,
10625,4265,Carlos Gangoiti Villa Argentina,,43.3185,-2.67895,4,,0,
10626,3314,Goikolea,,43.404,-2.81142,4,,0,
10627,9004,San Bartolomé 1,,43.2949,-3.00129,2,,0,
10628,3937,Uraska,,43.229,-2.81883,2,,0,
10629,3610,Itxurriandia Mikel Deuna,,43.4182,-2.74582,4,,0,
10630,4638,Ariatza,,43.2709,-2.68554,4,,0,
10631,5336,Altzaga - Erandiogoikoa Uribarri,,43.3038,-2.9598,2,,0,
10632,4644,Elexalde,,43.2923,-2.70795,4,,0,
10633,3834,Natxitua,,43.381,-2.61381,5,,0,
10634,3848,Bedarona,,43.3775,-2.5708,5,,0,
10635,4234,Lambarri,,43.2064,-3.08331,3,,0,
10636,4798,Korostondo,,43.0508,-2.66096,5,,0,
10637,9017,Oruezabaleta,,43.1751,-2.60698,4,,0,
10638,4784,La Arena / Ondarra,,43.3469,-3.11475,3,,0,
10639,5329,Altzaga - Erandigoikoa Artetxe,,43.3042,-2.96275,2,,0,
10640,4490,Goiko Errota,,43.4247,-2.90088,3,,0,
10641,5456,Teknologia - Parkea Arteaga,,43.2855,-2.85879,2,,0,
10642,3955,Txomin Egileor Mercadillo,,43.2296,-2.85988,2,,0,
10643,4760,Autonomía,,43.3188,-3.12341,3,,0,
10644,3374,Alturriaga,,43.0433,-3.00474,4,,0,
10645,5255,Mungialde Etorbidea 1,,43.2918,-2.88872,2,,0,
10646,3347,Obispo Olaetxea 18,,43.2903,-2.97554,2,,0,
10647,1055,Ribera De Elorrieta,,43.2852,-2.96718,1,,0,
10648,4240,Padura,,43.1951,-3.04779,3,,0,
10649,5180,Garbe,,43.1605,-2.78454,3,,0,
10650,4252,Iorgi 42,,43.2058,-3.04642,3,,0,
10651,3938,Udaletxea / Ayuntamiento,,43.2308,-2.84031,2,,0,
10652,4106,Las Llanas Ermita,,43.1634,-3.10241,3,,0,
10653,3509,Landeta Goikoa,,43.2933,-2.98918,2,,0,
10654,3187,Gumuzio,,43.2309,-2.76678,3,,0,
10655,3803,Artzubi,,43.147,-2.75949,3,,0,
10656,4889,Campanzar,,43.3228,-3.02845,2,,0,
10657,5447,Teknologia - Parkea Itp,,43.2912,-2.85804,2,,0,
10658,3561,Urbi 47,,43.2372,-2.87743,2,,0,
10659,3552,Gernika 5 Abaro,,43.2229,-2.88825,2,,0,
10660,4923,Ugarte El Juncal,,43.2917,-3.01485,2,,0,
10661,5531,Eleizalde,,43.2973,-2.63753,5,,0,
10662,3269,Olatxu,,43.3276,-2.76221,3,,0,
10663,0208,Maurice Ravel Teléfonica,,43.2676,-2.91852,1,,0,
10664,3122,Gerediaga,,43.1699,-2.60544,4,,0,
10665,3851,Mendiola,,43.3727,-2.56354,5,,0,
10666,5080,Gatzarriñe Metro Larrabasterra,,43.3758,-2.99109,3,,0,
10667,4190,Telletxe 40,,43.3557,-3.0118,2,,0,
10668,3964,Bizkai,,43.2325,-2.84063,2,,0,
10669,4321,Garagarreta,,43.3664,-2.56018,5,,0,
10670,3613,Itxurriandia Mikel Deuna,,43.4181,-2.74538,4,,0,
10671,4136,Sertutxe,,43.4171,-2.92658,3,,0,
10672,9028,Urreta,,43.2341,-2.84919,2,,0,
10673,4514,Goitondobekoa Hambre,,43.1945,-2.52137,5,,0,
10674,4919,Babcock El Juncal,,43.298,-3.01322,2,,0,
10675,4704,Landabarrena,,43.3893,-2.79922,3,,0,
10676,3760,Ugunagane,,43.1121,-2.76305,4,,0,
10677,4927,Arkotxa,,43.3002,-3.031,2,,0,
10678,0110,Bidarte Lehendakari Aguirre 42,,43.2722,-2.9508,1,,0,
10679,3141,Sanfuentes Kotxetegia / Cocheras,,43.3252,-3.07292,3,,0,
10680,0605,Alameda Recalde 11,,43.2667,-2.93333,1,,0,
10681,3202,Oleta,,43.3438,-2.50547,5,,0,
10682,5281,Axpeko Erribera,,43.3128,-2.98327,2,,0,
10683,4590,Emerando Gane,,43.3848,-2.77801,3,,0,
10684,5212,La Llana,,43.2168,-3.14177,3,,0,
10685,4041,Gorordo,,43.3696,-2.88418,3,,0,
10686,3912,Mandaluiz,,43.3398,-2.79012,3,,0,
10687,3495,Ametzaga 10,,43.2821,-2.99364,2,,0,
10688,4763,Oyancas,,43.3259,-3.123,3,,0,
10689,3259,Arbide,,43.1625,-2.93066,3,,0,
10690,5429,Arteaga,,43.2843,-2.86423,2,,0,
10691,4725,Beko Kale Torrebillela,,43.3534,-2.84877,3,,0,
10692,3199,Arbitxa,,43.3373,-2.51447,5,,0,
10693,3180,Astepe,,43.2129,-2.7419,3,,0,
10694,5426,La Ola,,43.2911,-2.92532,2,,0,
10695,5168,Areatza,,43.1212,-2.76975,4,,0,
10696,4729,Bengoetxe,,43.3221,-2.54197,5,,0,
10697,0105,Bidarte Lehendakari Aguirre 33,,43.272,-2.95102,1,,0,
10698,5347,Mezo 24 Farmazia,,43.3163,-2.98234,2,,0,
10699,5427,Lekunbiz,,43.2879,-2.87714,2,,0,
10700,5310,Asua Makro,,43.3038,-2.94908,2,,0,
10701,4484,Armintzekalde,,43.4318,-2.89711,3,,0,
10702,3208,Munitibar,,43.2658,-2.59222,5,,0,
10703,4983,El Calero,,43.3461,-3.06995,3,,0,
10704,3205,Olarra,,43.1491,-2.7896,3,,0,
10705,4994,Mamariga 139,,43.3326,-3.04017,2,,0,
10706,4285,Elexalde,,43.331,-2.53719,5,,0,
10707,5545,Torrelarragoiti,,43.2788,-2.85062,2,,0,
10708,5240,Mendieta Biribilgunea / Rotonda,,43.212,-2.88326,2,,0,
10709,3100,Matiena San Blas,,43.1694,-2.60822,4,,0,
10710,4779,Cobaron,,43.3454,-3.14695,3,,0,
10711,3845,Altxikerre,,43.381,-2.58251,5,,0,
10714,4728,Palado,,43.3534,-2.84089,3,,0,
10715,4669,Elgezabal Hornigailua / Surtidor,,43.3367,-2.83553,3,,0,
10716,3830,Olleria,,43.1713,-2.62707,4,,0,
10717,4113,Orabille,,43.417,-2.91732,3,,0,
10718,4284,Okamika,,43.3301,-2.54301,5,,0,
10719,5074,Ander Deuna Ermita,,43.3905,-2.97867,3,,0,
10720,5350,Mezo 68 - 70 Bistalai,,43.3146,-2.96991,2,,0,
10721,4166,Salsidu Basotxi,,43.3558,-3.00135,2,,0,
10722,9001,Bildosola Industrialgunea,,43.1386,-2.78397,3,,0,
10723,4639,Zugastieta,,43.2521,-2.6934,4,,0,
10724,4511,Areitiogana,,43.1825,-2.53256,5,,0,
10725,9033,Saturraran,,43.3152,-2.41136,5,,0,
10726,5251,Artebakarra,,43.3183,-2.87713,2,,0,
10727,3106,Matiena San Blas,,43.1696,-2.60807,4,,0,
10728,5563,Campanzar,,43.3222,-3.02953,2,,0,
10729,4947,Kurutzea / La Cruz,,43.2765,-2.84538,2,,0,
10730,3819,Bernaola,,43.1227,-2.73862,3,,0,
10731,4609,Usila Industrialdea,,43.1841,-2.90109,3,,0,
10732,3161,Ibarguren,,43.2025,-2.71193,3,,0,
10733,3207,Zelaia,,43.1568,-2.78936,3,,0,
10734,4273,Errenteria,,43.318,-2.67436,4,,0,
10735,3279,Madariaga,,43.3423,-2.77828,3,,0,
10736,0210,Maurice Ravel Begiratokia / Mirador,,43.2699,-2.92279,1,,0,
10737,5304,Ibañez Betolatza,,43.2954,-2.96865,2,,0,
10738,0203,Campo Volantín 1 Udaletxea / Ayuntamiento,,43.264,-2.92359,1,,0,
10739,0543,Areatza / Arenal San Nikolas,,43.2604,-2.92303,1,,0,
10740,9013,Las Calizas,,43.3033,-3.07815,3,,0,
10741,4855,Rotonda De Plentzia,,43.4051,-2.94884,3,,0,
10742,4808,Egoitza / Residencia,,42.9924,-3.00986,5,,0,
10743,3921,Askarri,,43.2328,-2.81528,2,,0,
10744,4825,Unibaso,,43.0972,-2.878,4,,0,
10745,0260,Zorrotza - Kastrexana Flex,,43.2713,-2.97453,1,,0,
10746,3466,La Paz 14 Anbulatorioa,,43.2803,-2.98644,2,,0,
10747,4395,Elexalde Auzo Etxea / Centro Cívico,,43.3258,-2.98685,2,,0,
10748,4524,Urtiaga Industrialdea Ges,,43.1861,-2.52002,5,,0,
10749,4126,Sagastikoetxe Biribilgunea / Rotonda,,43.4046,-2.93317,3,,0,
10750,4974,Iparragirre Repsol,,43.3431,-3.06095,2,,0,
10751,4965,Cabieces,,43.3218,-3.03749,2,,0,
10752,4985,Landeta San Juan,,43.3376,-3.04624,2,,0,
10753,4099,Largatxa,,43.1542,-3.10638,3,,0,
10754,5030,Urbinaga La Naval,,43.3065,-2.98934,2,,0,
10755,3815,Elgabide,,43.106,-2.72082,3,,0,
10756,5162,Torre,,43.1024,-2.58083,5,,0,
10757,4406,J. M. Barandiaran Institutua,,43.3339,-2.97406,2,,0,
10758,3378,Saratxo Eliza / Iglesia,,43.0236,-3.01079,4,,0,
10759,3925,Olabarri,,43.232,-2.82453,2,,0,
10760,3110,San Antolín,,43.1372,-2.59591,4,,0,
10761,4360,Urkulu,,43.2507,-2.80161,3,,0,
10762,3946,Erdikoetxea Gasolindegia / Gasolinera,,43.2325,-2.79342,2,,0,
10763,3111,San Antolín,,43.1372,-2.5957,4,,0,
10764,3940,Abusu,,43.2298,-2.83371,2,,0,
10765,5357,Sakoni,,43.3003,-2.95864,2,,0,
10766,4650,Bidakurtze,,43.2933,-2.71362,4,,0,
10767,3342,Balejo,,43.2835,-2.98333,2,,0,
10768,3962,Urreta,,43.2339,-2.84906,2,,0,
10769,4709,Llona,,43.3441,-2.8149,3,,0,
10770,4286,Leguarri,,43.3336,-2.53484,5,,0,
10771,3733,Herriko Plaza,,43.1324,-2.78288,3,,0,
10772,3915,Aperribai,,43.24,-2.87385,2,,0,
10773,3550,Gernika 46 San Migel,,43.2194,-2.88748,2,,0,
10774,4743,Ibarrola,,43.2928,-2.5765,5,,0,
10775,5264,Abeletxea / Granja,,43.2947,-2.86866,2,,0,
10776,4703,Ereñotzaga,,43.3803,-2.80122,3,,0,
10777,5152,Iturralde,,43.1052,-2.58285,5,,0,
10778,4713,La Bilbaina Auzo - Etxea / Centro Cívico,,43.3248,-2.85022,3,,0,
10779,4407,Sarriena Irlandesas,,43.3338,-2.98276,2,,0,
10780,5007,Catalina Gibaja 40,,43.3105,-3.05632,2,,0,
10781,3581,Elexalde Udaletxea / Ayuntamiento,,43.3632,-2.99587,2,,0,
10782,3302,Kurtzikene,,43.4083,-2.81408,4,,0,
10783,4027,Ugarte,,43.3662,-2.87739,3,,0,
10784,3731,Bildosola,,43.1437,-2.78723,3,,0,
10785,5048,Las Llanas,,43.3097,-3.00928,2,,0,
10786,4510,Trabakua,,43.2123,-2.54368,5,,0,
10787,3496,Gorostiza Kiroldegia / Polideportivo,,43.2779,-2.99468,2,,0,
10788,5250,Artebakarra,,43.3184,-2.87692,2,,0,
10789,4010,Garellano,,43.3381,-2.80518,3,,0,
10790,0264,Las Delicias,,43.2551,-2.97249,1,,0,
10791,5037,Iberia,,43.3114,-3.00517,2,,0,
10792,3766,Arkulanda,,43.1557,-2.87821,3,,0,
10793,4591,Emerando Gane,,43.3845,-2.77684,3,,0,
10794,5138,La Penilla,,43.1868,-3.20319,4,,0,
10795,5119,Elortza,,43.3731,-2.95024,3,,0,
10796,3837,Zarakondegi,,43.3701,-2.56545,5,,0,
10797,1016,Artxanda Jesus Maria Ikastetxea,,43.2769,-2.92664,1,,0,
10798,5012,El Minero Anbulatorioa,,43.3084,-3.05113,2,,0,
10799,5244,Asteintza Apaiztegia / Seminario,,43.2896,-2.88245,2,,0,
10800,3575,Lantzarte,,43.3611,-2.99687,2,,0,
10801,4600,Torre De Ugao 8,,43.1815,-2.90248,3,,0,
10802,3579,Sabino Arana 24,,43.366,-2.99946,2,,0,
10803,3576,Elexalde Kultur Etxea / Casa De Cultura,,43.3645,-2.99575,2,,0,
10804,4245,Euskadi Plaza,,43.2126,-3.09559,3,,0,
10805,3142,Sanfuentes Kotxetegia / Cocheras,,43.3251,-3.07305,3,,0,
10806,1046,Mikoleta,,43.2663,-2.89787,1,,0,
10807,5326,Magdalenabidea Errekurtze,,43.3291,-2.95722,2,,0,
10808,4680,Basozabal Basabitxi,,43.3449,-2.85425,3,,0,
10809,1031,Etxearte,,43.2644,-2.88984,1,,0,
10810,4424,Langileria Txopoeta / La Chopera,,43.3194,-2.99467,2,,0,
10811,3416,Esquina Abajo,,43.1016,-3.04648,4,,0,
10812,0485,Zumalakarregi Makua Plaza,,43.2571,-2.91192,1,,0,
10813,4698,La Bilbaina Urbide,,43.3293,-2.8522,3,,0,
10814,4402,Santimami Eroski,,43.3185,-2.97363,2,,0,
10815,4412,Ehu Biblioteka,,43.3307,-2.96897,2,,0,
10816,3842,Beñaga Tres Cruces,,43.3823,-2.61732,5,,0,
10817,5509,Aldanondo Elkartegia,,43.2414,-2.99476,2,,0,
10818,3519,Max Center,,43.29,-3.01073,2,,0,
10819,4516,Trabakua,,43.2102,-2.54586,5,,0,
10820,5096,Mercadillo Udaletxea / Ayuntamiento,,43.2619,-3.15405,3,,0,
10821,3828,Faustekalea,,43.1692,-2.62333,4,,0,
10822,3413,Esquina Abajo,,43.1012,-3.04755,4,,0,
10823,3405,Luiando Oleta,,43.0633,-2.99663,4,,0,
10824,4563,Asteinza,,43.3835,-2.87762,3,,0,
10825,3361,Gernikako Arbola Epaitegiak / Juzgados,,43.2942,-2.99138,2,,0,
10826,4247,Zaramillo,,43.2332,-3.01455,3,,0,
10827,4791,Elizabarri,,43.0434,-2.65391,5,,0,
10828,3479,Erreketa,,43.3019,-2.98193,2,,0,
10829,4684,Atela,,43.3495,-2.82626,3,,0,
10830,3524,Munoa Kotxetegia / Cocheras,,43.2857,-2.97614,2,,0,
10831,4121,Kiroldegia / Polideportivo,,43.4168,-2.93759,3,,0,
10832,1054,Museo Plaza,,43.2661,-2.93742,1,,0,
10833,3744,Palometxe,,43.1337,-2.79056,3,,0,
10834,3574,Axgane,,43.3588,-2.99813,2,,0,
10835,4642,Iturri,,43.2951,-2.72,4,,0,
10836,4199,Andra Mari,,43.364,-3.01707,2,,0,
10837,4941,El Juncal Ford,,43.2943,-3.01404,2,,0,
10838,5201,Lusa,,43.2137,-3.13088,3,,0,
10839,4804,Errenteria,,43.3211,-2.44546,5,,0,
10840,4816,Oketa,,43.0889,-2.91837,4,,0,
10841,4324,Garagarreta,,43.3676,-2.56072,5,,0,
10842,1015,Artxanda Begiratokia / Mirador,,43.2692,-2.90894,1,,0,
10843,3400,Puente Llanteno,,43.1402,-3.1072,4,,0,
10844,4146,Los Chopos 35,,43.3401,-3.00208,2,,0,
10845,5486,Bidebarrieta,,43.1752,-2.63646,4,,0,
10846,4621,Izabele,,43.3104,-2.74722,3,,0,
10847,3304,Egia - Frontoia,,43.418,-2.81329,4,,0,
10848,4430,Artatza Landabarri,,43.3322,-2.99706,2,,0,
10849,4086,Allende,,43.1679,-3.1007,3,,0,
10850,4004,Bekoetxebarri,,43.3138,-2.81344,3,,0,
10851,4944,Salcedillo,,43.3047,-3.02089,2,,0,
10852,3306,Olaskoetxe Irubide,,43.427,-2.81162,4,,0,
10853,4194,Av. Del Angel 23,,43.3585,-3.0162,2,,0,
10854,4569,Leku Ona,,43.3812,-2.87057,3,,0,
10855,5355,Arriluze,,43.3107,-2.96368,2,,0,
10856,4741,Mendikoetxe,,43.315,-2.54098,5,,0,
10857,3137,Institutua / Instituto,,43.3165,-3.07467,3,,0,
10858,3657,Itxas Begi,,43.3919,-2.69509,4,,0,
10859,4256,Arangoiti Gueñes,,43.2129,-3.10296,3,,0,
10860,3181,Katia,,43.2365,-2.7242,3,,0,
10861,4443,Luis Bilbao Libano,,43.3228,-2.98606,2,,0,
10862,4465,Mendieta,,43.2097,-2.79207,3,,0,
10863,5484,Mallabiena,,43.1775,-2.6462,4,,0,
10864,5252,Santa Clara Komentua / Convento,,43.3145,-2.87922,2,,0,
10865,3446,Anuntzibai Elkartegi,,43.1434,-2.94087,4,,0,
10866,5453,Teknologia - Parkea Edificio Barco,,43.2891,-2.85985,2,,0,
10867,4097,Las Llanas Ermita,,43.1636,-3.10244,3,,0,
10868,4596,Ugarte,,43.3565,-2.80265,3,,0,
10869,3483,Anaitasuna 10,,43.2833,-2.98996,2,,0,
10870,3784,Areiltza,,43.151,-2.86515,3,,0,
10871,4078,Pontón Urarte,,43.1763,-3.08951,3,,0,
10872,4394,Donibane / San Juan Kontserbatorioa,,43.3238,-2.98299,2,,0,
10873,4232,Lakabex Iberdrola,,43.2183,-3.0287,3,,0,
10874,3910,Zubiaurre,,43.1908,-2.5018,5,,0,
10875,3170,Montorra,,43.2059,-2.71522,3,,0,
10876,5174,Elexalde,,43.164,-2.77726,3,,0,
10877,3736,Biteri,,43.125,-2.77634,3,,0,
10878,4636,Kurtzero Geltokia / Estación,,43.2872,-2.68943,4,,0,
10879,5441,Egirleta,,43.2797,-2.89811,2,,0,
10880,4370,Aurrekoetxe,,43.3493,-2.89905,3,,0,
10881,4564,Olea,,43.3793,-2.88298,3,,0,
10882,4263,Geltokia / Estación,,43.3137,-2.67655,4,,0,
10883,3780,Ermitabarri,,43.1467,-2.83366,3,,0,
10884,9012,Las Calizas,,43.3031,-3.07845,3,,0,
10886,3470,Cruces Ospitaleahoracio Etxebarrieta,,43.2819,-2.98189,2,,0,
10887,4973,Balparda,,43.3194,-3.04495,2,,0,
10889,3154,El Campillo San Miguel,,43.3084,-3.07724,3,,0,
10890,4884,Peñota Nautika,,43.3263,-3.02295,2,,0,
10891,3762,Elorrebieta,,43.1702,-2.89656,3,,0,
10892,4435,Aldekoena,,43.3332,-2.98523,2,,0,
10893,3753,Altzusta,,43.0884,-2.7397,4,,0,
10894,4281,Leguarri,,43.3334,-2.53546,5,,0,
10895,4910,Zaballa,,43.2979,-3.02777,2,,0,
10896,4466,Intzuntza Gasolindegia / Gasolinera,,43.2095,-2.78217,3,,0,
10897,4711,Tejera,,43.3458,-2.81111,3,,0,
10898,4451,Negurigane,,43.335,-2.99797,2,,0,
10899,5321,Magdalenabidea Ibarra,,43.3216,-2.9624,2,,0,
10900,3307,Bentalde,,43.4291,-2.80503,4,,0,
10901,5420,Basozabal,,43.2989,-2.92309,2,,0,
10902,4233,Sodupe Geltokia / Estación,,43.2022,-3.05078,3,,0,
10903,1009,Bailen 1,,43.2601,-2.92587,1,,0,
10904,5266,Ugaldeguren Industrialdea,,43.2893,-2.88971,2,,0,
10905,4503,Larrotegi,,43.3604,-2.5066,5,,0,
10906,5211,La Flor El Paraíso,,43.2198,-3.15634,3,,0,
10907,5003,Antonio Alzaga 34a,,43.3248,-3.03045,2,,0,
10908,3902,Gipuzkoa Etorbidea 58 San Lorenzo,,43.1805,-2.49848,5,,0,
10909,3146,Sanfuentes 70,,43.3263,-3.07374,3,,0,
10910,5298,Asua La Avanzada 12,,43.3039,-2.94812,2,,0,
10911,3659,Landaberde Bbkren Udalekua / Colonia Bbk,,43.3888,-2.69568,4,,0,
10912,3458,Irabien Batzokia,,43.1577,-3.02605,4,,0,
10913,3961,Anbulatorioa,,43.2341,-2.84471,2,,0,
10914,4290,Ibinaga,,43.3928,-2.63255,5,,0,
10915,5217,La Herrera - Ijalde,,43.2032,-3.16936,3,,0,
10916,4411,Ehu Laboa Plaza,,43.3304,-2.96787,2,,0,
10917,4858,Geltokia / Estación Metro,,43.402,-2.94646,3,,0,
10918,0804,Basurto Ospitalea / Hospital Basurto,,43.2596,-2.95214,1,,0,
10919,4173,Zugazarte 54 Triángulo,,43.3359,-3.00976,2,,0,
10920,4608,Santi Laurenti,,43.1782,-2.90504,3,,0,
10921,4175,Algortako Etorb. 16 Txomintxu,,43.342,-3.00937,2,,0,
10922,5103,El Carral Esnetegia / Lechería,,43.2553,-3.15345,3,,0,
10923,3905,Zeharkalea 26 Kiroldegia / Polideportivo,,43.1871,-2.50799,5,,0,
10924,3295,Lepanto Lanbarketa,,43.2131,-2.8891,2,,0,
10925,3770,Zautuola,,43.1476,-2.85467,3,,0,
10926,3932,Usansolo,,43.2186,-2.81441,2,,0,
10927,9021,Ametza,,43.3634,-2.80727,3,,0,
10928,3781,Zubibarria,,43.1468,-2.84314,3,,0,
10929,4959,Murrieta 42 Batzokia,,43.3274,-3.02887,2,,0,
10930,3363,Landaburu,,43.294,-2.98727,2,,0,
10931,4287,Lariz - Oleta,,43.3387,-2.5273,5,,0,
10932,5267,Apaiztegia / Seminario,,43.2934,-2.88001,2,,0,
10933,4128,Gandia,,43.4017,-2.94304,3,,0,
10934,3449,Bitorika,,43.1487,-2.95125,4,,0,
10935,5097,Cotarros,,43.2701,-3.15387,3,,0,
10936,4721,Goietako Plaza,,43.3543,-2.84317,3,,0,
10937,4792,Ospital Kalea,,43.04,-2.65304,5,,0,
10938,3922,Erletxeta Ermita,,43.2362,-2.80428,2,,0,
10939,4647,Igertu,,43.2898,-2.69466,4,,0,
10940,5185,San Andres,,43.1738,-2.54639,5,,0,
10941,4167,La Avanzada 28 Antiguo Golf,,43.3338,-3.00371,2,,0,
10942,1047,Orueta,,43.2653,-2.90264,1,,0,
10943,5312,Erandiondo,,43.3022,-2.9575,2,,0,
10944,5370,Asua Inbisa,,43.3025,-2.94755,2,,0,
10945,2198,Abando Geltokia / Estación,,43.2601,-2.92895,1,,0,
10946,4137,Los Chopos 22,,43.3399,-3.00193,2,,0,
10947,4890,General Castaños 113,,43.3247,-3.03061,2,,0,
10948,3802,Ziarrusta,,43.152,-2.7695,3,,0,
10949,4834,Zubiaur,,43.1075,-2.91187,4,,0,
10950,5020,San Antón,,43.308,-3.03422,2,,0,
10951,4915,Zaballa,,43.2978,-3.02778,2,,0,
10952,3571,Basozelai Axular 42,,43.2365,-2.89623,2,,0,
10953,4067,Zubiete 93 Isasi,,43.1879,-3.05546,3,,0,
10954,4646,Igertu,,43.2898,-2.69499,4,,0,
10955,4431,Udondo,,43.3201,-2.9868,2,,0,
10956,5164,Elexalde,,43.2085,-2.80259,3,,0,
10957,4934,Alto Alday,,43.3047,-3.02646,2,,0,
10958,5056,Chavarri Gasolindegia / Gasolinera,,43.3136,-3.01091,2,,0,
10959,5023,Nocedal,,43.3193,-3.06279,2,,0,
10960,5479,Arriandi,,43.1817,-2.65672,4,,0,
10961,3491,Primero De Mayo,,43.2917,-2.99885,2,,0,
10964,4143,Los Chopos 93 Getxo I,,43.3528,-3.00482,2,,0,
10965,3334,Burtzeña Gasolindegia / Gasolinera,,43.2797,-2.97887,2,,0,
10968,3221,Susaeta,,43.2722,-2.59689,5,,0,
10969,4141,Ollaretxe 10 El Redentor,,43.357,-3.00676,2,,0,
10970,5236,Arkotxa,,43.2302,-2.86473,2,,0,
10971,4104,Largatxa,,43.1543,-3.10617,3,,0,
10972,3644,Iturritza,,43.17,-2.57534,5,,0,
10973,0629,Zabalburu - Quinta Parroquia,,43.2579,-2.93274,1,,0,
10974,9034,Saturraran,,43.315,-2.41154,5,,0,
10975,4508,Areitiogana,,43.1823,-2.53223,5,,0,
10976,3464,Anaitasuna 12 Correos,,43.2828,-2.98975,2,,0,
10977,4691,Belako,,43.3461,-2.81809,3,,0,
10978,4665,Billela,,43.3707,-2.85676,3,,0,
10979,3206,Olarra,,43.1492,-2.78937,3,,0,
10980,4211,Santa Ana Plaza,,43.3234,-3.01165,2,,0,
10981,4513,Trabakua,,43.2093,-2.54739,5,,0,
10982,4744,Ibarrola,,43.2928,-2.57633,5,,0,
10983,5380,Larrabarri Olarra,,43.2956,-2.90587,2,,0,
10984,1050,Ensanche Plaza Mapfre,,43.264,-2.93048,1,,0,
10985,4368,Etxezuri,,43.3483,-2.89599,3,,0,
10986,4982,San Juan,,43.336,-3.04705,2,,0,
10987,3878,Bidekalea Elantxobe,,43.4025,-2.63946,5,,0,
10988,4531,Goitondogoikoa,,43.1985,-2.52908,5,,0,
10989,3655,San Cristobal,,43.368,-2.69452,4,,0,
10990,4100,Zabaia Bekoa,,43.1739,-3.02906,3,,0,
10991,5361,Magdalenabidea Errekurtze,,43.3292,-2.95698,2,,0,
10992,3339,Retuerto 17,,43.2833,-2.99664,2,,0,
10993,5511,Digipen Cabot,,43.3502,-3.07597,3,,0,
10994,5372,Altzaga - Erandiogoikoa Beitibekoa,,43.3016,-2.9591,2,,0,
10995,3850,Mendiola,,43.3725,-2.56392,5,,0,
10996,4003,Duene,,43.3234,-2.81651,3,,0,
10997,5464,Idokiliz,,43.3325,-2.65721,5,,0,
10998,3299,Atxukarro Industrialdea 14 Biribilgunea / Rotonda,,43.216,-2.89285,2,,0,
10999,4612,Santi Laurenti,,43.1781,-2.90521,3,,0,
11000,4587,Bidebieta,,43.3736,-2.80094,3,,0,
11001,3643,Parrokia,,43.1764,-2.57665,5,,0,
11002,3939,Erdikoetxea Gasolindegia / Gasolinera,,43.2315,-2.79017,2,,0,
11003,4960,San Juan De Dios Ospitalea / Hospital,,43.3253,-3.02454,2,,0,
11004,3437,Zumalakarregi Egoitza / Residencia,,43.1403,-2.96549,4,,0,
11005,3590,Mañu,,43.3994,-2.759,4,,0,
11006,5126,Mendi Ondo Eskolak / Escuelas,,43.368,-2.93934,3,,0,
11007,4363,Zugatzarte,,43.3575,-2.91716,3,,0,
11008,4085,Sandamendi,,43.1783,-3.07845,3,,0,
11009,3209,Munitibar,,43.2658,-2.59228,5,,0,
11010,3516,Landeta Parkea,,43.2921,-2.98864,2,,0,
11011,3913,Fruiz,,43.3275,-2.78465,3,,0,
11012,4747,Las Llanas,,43.3236,-3.12814,3,,0,
11013,4130,Kautela Gandia Goikoa,,43.4028,-2.93907,3,,0,
11014,4659,Goiko Kalea 35,,43.4072,-2.69952,4,,0,
11015,5131,Campo De Las Monjas,,43.1931,-3.19788,4,,0,
11016,4885,Peñota Nautika,,43.3262,-3.023,2,,0,
11017,5170,Bolibar Egoitza,,43.1191,-2.76789,4,,0,
11018,0701,La Casilla Autonomía 45,,43.2576,-2.94279,1,,0,
11019,4528,Apoita,,43.2062,-2.55152,5,,0,
11020,4738,Aulestia Plaza,,43.2971,-2.56274,5,,0,
11021,3740,Sarasola,,43.1354,-2.80242,3,,0,
11022,4037,Urondo,,43.3742,-2.88989,3,,0,
11023,0140,San Pedro Plaza,,43.272,-2.94513,1,,0,
11024,3124,Las Postas,,43.3217,-3.06858,3,,0,
11026,3829,Faustekalea,,43.1693,-2.62368,4,,0,
11027,3533,Azalakopozo Bideondo,,43.4014,-2.97173,3,,0,
11028,3814,Elgabide,,43.1054,-2.72073,3,,0,
11029,3460,Padura Hípika,,43.163,-3.02566,4,,0,
11030,4540,Aspiltza,,43.2909,-2.48678,5,,0,
11031,3917,Ibaizabal,,43.2309,-2.85016,2,,0,
11032,3732,Bildosola,,43.144,-2.78712,3,,0,
11033,4423,Elexalde Udaletxea / Ayuntamiento,,43.3268,-2.98691,2,,0,
11034,4209,Kresaltxu 16,,43.3291,-3.00641,2,,0,
11035,4809,Egoitza / Residencia,,42.9925,-3.00972,5,,0,
11036,4821,Bengoetxea Artiach,,43.1224,-2.9133,4,,0,
11037,4280,Lariz - Oleta,,43.3386,-2.52824,5,,0,
11038,3150,El Campillo Industrialdea,,43.3079,-3.08284,3,,0,
11039,3101,Lebario,,43.1655,-2.59837,4,,0,
11040,3654,San Bartolomé,,43.3767,-2.69947,4,,0,
11041,3826,Madalena Plaza,,43.1716,-2.63305,4,,0,
11042,4850,Hegoalde,,43.1059,-2.90894,4,,0,
11043,0850,San Ignacio Lehendakari Aguirre 131,,43.2758,-2.95976,1,,0,
11044,4471,Bolunburu,,43.2128,-2.75908,3,,0,
11045,3501,El Regato / Errekatxo Urkullu,,43.262,-3.02073,2,,0,
11046,3831,Olleria,,43.1712,-2.62735,4,,0,
11047,5122,Mendi Ondo Gasolindegia / Gasolinera,,43.366,-2.92926,3,,0,
11048,1019,Elorriaga,,43.2831,-2.95311,1,,0,
11049,4992,San Juan Bidegurutzea / Cruce,,43.3351,-3.04559,2,,0,
11050,3594,Dondiz,,43.3932,-2.77059,4,,0,
11051,5300,Magdalenabidea Ikatza,,43.3244,-2.95833,2,,0,
11052,4354,Goikolexea,,43.2671,-2.78484,3,,0,
11053,5442,Egirleta,,43.2814,-2.89924,2,,0,
11054,5306,Lukileze,,43.3003,-2.96217,2,,0,
11055,4066,Errekalde,,43.3452,-2.65335,5,,0,
11056,4573,Olabe,,43.2836,-2.63218,5,,0,
11057,4119,Aringoetxe Begoña Jatetxea,,43.42,-2.9392,3,,0,
11058,3285,Aguirre Martiartu Industrialdea,,43.1961,-2.90044,2,,0,
11059,3426,Udaletxea / Ayuntamiento,,43.1438,-2.9624,4,,0,
11060,5032,Los Baños,,43.3107,-2.99952,2,,0,
11061,0801,Autonomía 78 Lantik,,43.258,-2.94813,1,,0,
11062,5139,Avda. Encartaciones,,43.1897,-3.20076,4,,0,
11063,5536,Uarka,,43.3185,-2.6543,5,,0,
11064,4017,Laukike,,43.3293,-2.82556,3,,0,
11065,0232,Biribila Plaza / Plaza Circular Navarra Kalea,,43.2611,-2.92693,1,,0,
11066,4810,Prado Igerilekuak / Piscinas,,43.0107,-3.0067,5,,0,
11067,5261,Islabe,,43.3086,-2.88241,2,,0,
11068,4879,Carlos VII 18,,43.318,-3.02251,2,,0,
11069,3586,Moreaga,,43.3667,-2.9983,2,,0,
11070,3360,San Vicente Gernikako Arbola,,43.2943,-2.99545,2,,0,
11071,4616,Izabele,,43.3102,-2.74731,3,,0,
11072,3348,Lutxana Eliza / Iglesia,,43.2907,-2.97955,2,,0,
11073,3640,Hormaztegi,,43.1765,-2.58312,5,,0,
11074,3312,Otsategi,,43.4132,-2.81387,4,,0,
11075,4396,Ondiz,,43.3279,-2.99108,2,,0,
11076,0161,Juan De Garay Torre Urizar,,43.2513,-2.93479,1,,0,
11077,0206,Campo Volantín La Salve,,43.2697,-2.93126,1,,0,
11078,4599,Usila Zubia / Puente Usila,,43.1841,-2.90067,3,,0,
11079,1034,Gran Vía 74,,43.2648,-2.94296,1,,0,
11080,5508,Kortatxu,,43.2381,-3.00106,2,,0,
11081,4337,Berresonaga Mirasol,,43.2648,-2.80811,3,,0,
11082,3933,Ospitalea / Hospital,,43.2229,-2.81911,2,,0,
11083,5248,Aldekone,,43.2983,-2.88589,2,,0,
11084,3272,Amotxebarri,,43.3255,-2.77653,3,,0,
11085,4594,Ugarte,,43.3564,-2.80251,3,,0,
11086,3957,Kortederra,,43.231,-2.77908,2,,0,
11087,4734,Goikolea,,43.286,-2.58579,5,,0,
11088,3149,Sanfuentes 1,,43.3234,-3.07155,3,,0,
11089,5565,Puente Busterri Aterpetxea / Albergue,,43.4126,-2.94288,3,,0,
11090,3534,Ziarreta Cantabrico,,43.4038,-2.96876,3,,0,
11091,3356,San Eloy Av. Miranda,,43.2964,-2.99471,2,,0,
11092,3186,Particular De San Pedro,,43.224,-2.73962,3,,0,
11093,3398,Garay Gasolinera,,43.1233,-3.12195,4,,0,
11094,3745,Plaza Auzoa,,43.0985,-2.74971,4,,0,
11095,4856,Portua / Puerto,,43.4075,-2.94513,3,,0,
11096,4206,Amaia 22,,43.3227,-3.00961,2,,0,
11097,4144,Los Chopos 51 Fadura,,43.3477,-3.00022,2,,0,
11098,3779,Isasi,,43.1454,-2.8312,3,,0,
11099,5314,Saratseta,,43.2988,-2.9643,2,,0,
11100,4602,San Bartolomé Chakala,,43.1768,-2.90224,3,,0,
11101,5270,Geldo,,43.3001,-2.87148,2,,0,
11102,3542,Larretxe,,43.4029,-2.95708,3,,0,
11103,5223,Arangoiti Zalla,,43.212,-3.10782,3,,0,
11104,9031,Musakola,,43.072,-2.47166,5,,0,
11105,3349,Andicollano Anbulatorioa,,43.2881,-2.98119,2,,0,
11106,5243,Udaletxea / Ayuntamiento,,43.2908,-2.88686,2,,0,
11107,4780,San Julian,,43.3319,-3.11271,3,,0,
11108,4127,Gandia,,43.4013,-2.9432,3,,0,
11109,5487,Bidebarrieta,,43.175,-2.63656,4,,0,
11110,3397,El Cantón,,43.1221,-3.12575,4,,0,
11111,1003,Arabella,,43.2617,-2.90973,1,,0,
11112,5172,Gezala,,43.1721,-2.77672,3,,0,
11113,4807,Itxasaurre Portua / Puerto,,43.3229,-2.42176,5,,0,
11114,4469,Arraibi - Tallerreta,,43.2065,-2.77023,3,,0,
11115,3651,San Bartolomé,,43.3763,-2.69924,4,,0,
11116,3512,La Libertad 18,,43.2973,-2.99098,2,,0,
11117,4707,Lauaxeta,,43.3568,-2.85064,3,,0,
11118,5518,La Arena / Ondarra,,43.3489,-3.11249,3,,0,
11119,4775,Antonio Trueba,,43.3219,-3.11447,3,,0,
11120,3945,Artola,,43.2456,-2.80539,2,,0,
11121,4020,Santa Katalina,,43.1938,-2.61826,4,,0,
11122,4257,Arangoiti Gueñes,,43.2127,-3.10265,3,,0,
11123,9002,Bildosola Industrialgunea,,43.1358,-2.78445,3,,0,
11124,4916,Ugarte,,43.2918,-3.01626,2,,0,
11125,3809,Lapurreketa,,43.0668,-2.67665,3,,0,
11126,4819,Oketa,,43.0888,-2.91811,4,,0,
11127,4022,Aiartza - Sarria,,43.1822,-2.60528,4,,0,
11128,5470,Goierria,,43.3513,-2.68265,4,,0,
11129,3543,Larretxe,,43.4031,-2.9571,3,,0,
11130,5324,Libao Arostegi,,43.3304,-2.96245,2,,0,
11131,5461,Idokilis,,43.3325,-2.65705,5,,0,
11132,4230,Zaramillo,,43.233,-3.01448,3,,0,
11133,5302,Erandiogoikoa,,43.3072,-2.95316,2,,0,
11134,3642,Vera Cruz Komentua / Convento,,43.1822,-2.57448,5,,0,
11135,3947,Erletxeta Industrialdea,,43.2386,-2.80318,2,,0,
11136,4877,Carlos VII 3,,43.32,-3.02063,2,,0,
11137,4571,Ororoaga,,43.2935,-2.63402,5,,0,
11138,3296,Severo Ochoa Lonbo Aretoa,,43.2117,-2.88797,2,,0,
11139,5071,Zipiriñe Akilino Arriola,,43.3792,-2.98596,3,,0,
11140,4124,Aringoetxe Begoña Jatetxea,,43.42,-2.93939,3,,0,
11141,3419,Inzier,,43.1338,-3.03409,4,,0,
11142,3204,Zelaia,,43.1565,-2.79001,3,,0,
11143,3573,Agirre Lehendakaria San José Ikastetxea,,43.2373,-2.88686,2,,0,
11144,4802,Astilleru,,43.3191,-2.42131,5,,0,
11145,3456,Arenalde Malkuartu,,43.1535,-3.02776,4,,0,
11146,4145,Los Chopos 45,,43.3435,-3.00108,2,,0,
11147,4675,Trobika 4 Udaletxea / Ayuntamiento,,43.3543,-2.84626,3,,0,
11148,5365,La Avanzada Ertzaintza,,43.3103,-2.9616,2,,0,
11149,0702,Autonomía 13,,43.2574,-2.93764,1,,0,
11150,5417,San Juan,,43.2994,-2.9286,2,,0,
11151,4485,Urondo,,43.4264,-2.89961,3,,0,
11152,4978,Iparragirre 35,,43.3329,-3.03725,2,,0,
11153,3538,Zahar - Egoitza / Asilo,,43.4055,-2.96372,3,,0,
11154,3871,Zubialdea El Boquete,,43.2444,-2.90422,2,,0,
11155,3652,Axpe,,43.3831,-2.69802,4,,0,
11156,3589,Mañu,,43.3994,-2.75882,4,,0,
11157,3737,Biteri,,43.1251,-2.77612,3,,0,
11158,5057,Rivas,,43.3079,-2.99352,2,,0,
11159,3835,Angelutxu,,43.3807,-2.59894,5,,0,
11160,5344,Etxegorri Metro,,43.3151,-2.98563,2,,0,
11161,4068,Zubiete 79 Txelus,,43.1866,-3.05773,3,,0,
11162,4800,Errenteria,,43.321,-2.4455,5,,0,
11163,5419,Berreteaga,,43.2981,-2.91858,2,,0,
11164,3836,Donibane Ea,,43.3801,-2.58584,5,,0,
11165,3755,Zulaibar,,43.107,-2.75686,4,,0,
11166,3185,Boroa Ordainlekua / Peaje,,43.2309,-2.75065,3,,0,
11167,9038,Billela Torrontegi,,43.373,-2.86087,3,,0,
11168,4634,Zugastieta,,43.252,-2.69329,4,,0,
11169,5358,La Avanzada 26,,43.3131,-2.9652,2,,0,
11170,0607,Moyua Plaza Subdelegación Del Gobierno,,43.2633,-2.93598,1,,0,
11171,3151,El Minero 56,,43.3126,-3.07297,3,,0,
11172,3393,La Torre,,43.1328,-3.11564,4,,0,
11173,3840,Angelutxu,,43.3806,-2.59849,5,,0,
11174,4762,Iturrizar,,43.3235,-3.12292,3,,0,
11175,3919,Abusu,,43.2306,-2.83134,2,,0,
11176,4340,Goikola,,43.2659,-2.79007,3,,0,
11177,3136,El Minero 17,,43.3136,-3.07267,3,,0,
11178,3371,San José Auzoa,,43.0608,-2.9972,4,,0,
11179,5445,Teknologia - Parkea Innobasque,,43.2915,-2.86157,2,,0,
11180,4685,Anibarri,,43.3319,-2.83216,3,,0,
11181,3438,Udaletxea / Ayuntamiento,,43.1437,-2.96223,4,,0,
11182,4288,Lariz,,43.3397,-2.52389,5,,0,
11183,1037,Ibarrekolanda,,43.2733,-2.95286,1,,0,
11184,3778,Albitzu,,43.1408,-2.81451,3,,0,
11185,3513,Landeta Bekoa,,43.2931,-2.9891,2,,0,
11186,4427,Langilería Txopoeta / La Chopera,,43.3196,-2.99465,2,,0,
11187,4847,Usuluze,,43.102,-2.89622,4,,0,
11188,4242,Gallarraga Farmazia,,43.2022,-3.04906,3,,0,
11189,5051,Kueto Vicente Blasco Ibáñez,,43.3078,-3.00168,2,,0,
11190,5207,Las Pedrajas,,43.204,-3.15943,3,,0,
11191,5318,Magdalenabidea Ibarra,,43.3215,-2.96228,2,,0,
11192,3112,Andra Mari,,43.1433,-2.60317,4,,0,
11193,3936,Juan Bautista Uriarte 16 Plazakoetxe,,43.23,-2.84523,2,,0,
11194,4052,Herriko Enparantza 25,,43.3498,-2.65188,5,,0,
11195,4357,Andra Mari Elkartegia,,43.259,-2.79634,3,,0,
11196,3481,Arteagabeitia 7,,43.292,-2.99219,2,,0,
11197,5562,Atxondo Geltokia / Estación,,43.1317,-2.58406,5,,0,
11199,5094,El Carral,,43.2496,-3.15536,3,,0,
11200,5268,Apaiztegia / Seminario,,43.2934,-2.88027,2,,0,
11201,5095,Mercadillo 9,,43.2643,-3.15306,3,,0,
11202,4626,Aretxabalegana Morga Gane,,43.2836,-2.75744,3,,0,
11203,4497,Irubide,,43.4204,-2.90801,3,,0,
11204,3504,Ureta Ponto,,43.2705,-2.99571,2,,0,
11205,3580,Sabino Arana 21,,43.3659,-2.99972,2,,0,
11206,4070,Zubiete 15 La Industria,,43.1806,-3.06891,3,,0,
11207,9035,Mijoa Industrialdea,,43.308,-2.39675,5,,0,
11208,3454,Arenalde Malkuartu,,43.1536,-3.02784,4,,0,
11209,4624,Duo,,43.2965,-2.75848,3,,0,
11210,1039,Ibarsusi,,43.2493,-2.90312,1,,0,
11211,3265,Gastaka,,43.1589,-2.93348,3,,0,
11212,5469,Larrabe,,43.3601,-2.68899,4,,0,
11213,4720,Laukariz Ikastetxea / Colegio,,43.3383,-2.85315,3,,0,
11214,5229,Abellaneda,,43.2287,-3.16112,3,,0,
11215,3572,Karmelo Torre 17,,43.2376,-2.89793,2,,0,
11216,4192,Avda. Del Angel 34 La Venta,,43.3614,-3.01597,2,,0,
11217,4719,Laukariz Ikastetxea / Colegio,,43.3385,-2.85298,3,,0,
11218,5117,Ubide,,43.0252,-2.68833,5,,0,
11219,4319,Goikoetxe,,43.3857,-2.62195,5,,0,
11220,3827,Madalena Plaza,,43.1718,-2.633,4,,0,
11221,4764,San Julián,,43.3331,-3.11331,3,,0,
11222,3217,Matxinena,,43.2776,-2.6241,5,,0,
11223,5136,La Penilla,,43.1866,-3.203,4,,0,
11224,4489,Urizar Pilotalekua / Frontón,,43.4138,-2.90254,3,,0,
11225,3750,Zubizabal,,43.0513,-2.69779,4,,0,
11226,3885,San Agustín,,43.1309,-2.55736,5,,0,
11227,4322,Elejalde,,43.3617,-2.54497,5,,0,
11228,9010,El Campillo San Miguel,,43.3081,-3.07674,3,,0,
11229,3813,Bentatxuri,,43.1261,-2.74526,3,,0,
11230,3808,Lapurreketa,,43.0672,-2.67677,3,,0,
11231,3839,Donibane Ea,,43.3802,-2.58562,5,,0,
11232,5540,Lexartza,,43.315,-2.6541,5,,0,
11233,3352,Herriko Plaza 3,,43.2974,-2.98675,2,,0,
11234,3310,Estankoalde Romana,,43.4222,-2.81427,4,,0,
11235,3494,San Eloy La Bondad,,43.2974,-2.99253,2,,0,
11236,4525,Urtiaga Industrialdea Tva,,43.1851,-2.51513,5,,0,
11237,1004,Arabella,,43.2617,-2.90999,1,,0,
11238,5179,Sabino Arana,,43.1632,-2.77617,3,,0,
11240,5022,Bañales,,43.3126,-3.06465,2,,0,
11241,4024,Botiola,,43.3537,-2.88372,3,,0,
11242,5378,Elotxelerri Nafrisa,,43.2943,-2.90087,2,,0,
11243,3476,Cruces Ospitalea Balejo,,43.2824,-2.983,2,,0,
11244,4076,Las Llanas Plaza,,43.1611,-3.10347,3,,0,
11245,5468,Larrabe,,43.3613,-2.68957,4,,0,
11246,3763,Arbildu,,43.1636,-2.8883,3,,0,
11247,4502,Sabino Arana Telefónica,,43.363,-2.50925,5,,0,
11248,4812,Zezen - Plaza / Plaza De Toros,,42.9892,-3.00932,5,,0,
11249,3584,Arana,,43.3676,-2.99614,2,,0,
11250,3376,Saratxo Bidegurutzea / Cruce,,43.0301,-3.00696,4,,0,
11251,3865,San Antonio,,43.2509,-2.88407,2,,0,
11252,3625,Milloi Gane,,43.312,-2.48064,5,,0,
11253,3658,Landaberde Bbkren Udalekua / Colonia Bbk,,43.3887,-2.69541,4,,0,
11254,4777,Oyancas,,43.326,-3.12314,3,,0,
11255,5102,El Carral Esnetegia / Lechería,,43.2551,-3.15362,3,,0,
11256,3904,San Ignacio 3,,43.1854,-2.50276,5,,0,
11257,5039,Rivas,,43.3081,-2.99436,2,,0,
11258,5273,Lutxana,,43.2917,-2.97135,2,,0,
11259,4549,Iruzubieta,,43.2538,-2.52674,5,,0,
11260,5482,Maspe 9,,43.1738,-2.63914,4,,0,
11261,3854,Urtubia,,43.3707,-2.576,5,,0,
11262,4882,Bizkaia Zubia / Puente Bizkaia,,43.3231,-3.01873,2,,0,
11263,3475,La Paz 21,,43.2812,-2.9877,2,,0,
11264,3633,Berriz - Olakueta,,43.1679,-2.5738,5,,0,
11265,5317,Magdalenabidea Zabalbidea,,43.3177,-2.96575,2,,0,
11266,4094,Etxebarria,,43.1786,-3.03712,3,,0,
11267,3468,Larrea 18,,43.2971,-2.98087,2,,0,
11268,4355,Goikolexea,,43.2673,-2.78463,3,,0,
11269,3502,El Regato / Errekatxo Eliza / Iglesia,,43.2636,-3.0152,2,,0,
11270,4429,Lamiako Metro,,43.3216,-3.00112,2,,0,
11271,3373,Udaletxea / Ayuntamiento,,43.0514,-3.00221,4,,0,
11272,4565,Olea,,43.3798,-2.88217,3,,0,
11273,4874,Errepelega / Repelega,,43.3146,-3.01751,2,,0,
11274,5377,Larrabarri Olarra,,43.2955,-2.90634,2,,0,
11275,3258,Zuluaga Arakaldo,,43.1512,-2.94074,3,,0,
11276,5335,Altzaga - Erandiogoikoa Elexalde,,43.3077,-2.95786,2,,0,
11277,3200,Arbitxa,,43.3372,-2.5144,5,,0,
11278,5320,Magdalenabidea Magdalena,,43.3258,-2.95646,2,,0,
11279,4545,Azpiltza,,43.2912,-2.48697,5,,0,
11280,3313,Kurtzikene,,43.4074,-2.8138,4,,0,
11281,3215,Agarre,,43.2736,-2.61754,5,,0,
11282,4521,Mallabarrena,,43.1877,-2.52965,5,,0,
11283,5503,Arbuio,,43.2362,-3.0072,2,,0,
11284,3311,Egia - Frontoia,,43.4173,-2.81307,4,,0,
11285,4651,Iturri,,43.2953,-2.71984,4,,0,
11286,3934,Usansolo,,43.2187,-2.81415,2,,0,
11287,4946,La Arboleda,,43.2849,-3.05363,2,,0,
11289,0225,Zumalakarregi 105 Etxebarria Parkea,,43.2616,-2.9152,1,,0,
11290,5183,Garakoi,,43.178,-2.77495,3,,0,
11291,3214,Berreño,,43.2734,-2.61128,5,,0,
11292,4676,Elordui,,43.3657,-2.82409,3,,0,
11293,4398,Artatza Suhiltzaileak / Bomberos,,43.33,-2.9965,2,,0,
11294,1005,Artxanda Nogaro,,43.276,-2.9241,1,,0,
11295,5322,Magdalenabidea Zabalbidea,,43.3176,-2.96601,2,,0,
11296,3134,El Minero 44,,43.3139,-3.073,3,,0,
11297,4835,Oketa Beti,,43.0934,-2.91748,4,,0,
11298,3635,Uribe,,43.1667,-2.5588,5,,0,
11299,4654,Kurtzero,,43.2891,-2.68968,4,,0,
11300,3900,Bizkaia Etorbidea 11,,43.1856,-2.50342,5,,0,
11301,4291,Arboliz,,43.3896,-2.62435,5,,0,
11302,4468,Estaziñoa,,43.207,-2.77584,3,,0,
11303,4372,Elizalde,,43.3524,-2.90766,3,,0,
11304,3430,Gardea Zubia / Puente,,43.1284,-2.97786,4,,0,
11305,3143,Sanfuentes 2,,43.3236,-3.07147,3,,0,
11306,4692,Atela,,43.3496,-2.82637,3,,0,
11307,3344,Andicollano Anbulatorioa,,43.2883,-2.98075,2,,0,
11308,4369,Etxezuri,,43.3484,-2.89592,3,,0,
11309,4566,Asteinza,,43.3834,-2.87749,3,,0,
11310,3305,Estankoalde Romana,,43.4223,-2.81401,4,,0,
11311,4940,Funikular Kalea Udaletxea / Ayuntamiento,,43.3053,-3.03694,2,,0,
11312,0303,Jesus Galindez Adoratrices,,43.2605,-2.90477,1,,0,
11313,1006,Artxanda Kiroldegia / Polideportivo,,43.2736,-2.91754,1,,0,
11314,5284,Jose Luis Goioaga,,43.2994,-2.97597,2,,0,
11315,0812,Zorrotza Fray Juan 13,,43.2765,-2.97198,1,,0,
11316,4694,Sabino Arana,,43.3522,-2.84322,3,,0,
11317,0633,Abando Geltokia / Estación,,43.2605,-2.92817,1,,0,
11318,4262,Lurgorri Iparraguirre,,43.3068,-2.68037,4,,0,
11319,0262,Kastrexana Industrialdea,,43.2608,-2.97059,1,,0,
11320,5078,Eliza / Iglesia,,43.3805,-2.98314,3,,0,
11321,5209,Otxaran Goikoa,,43.2232,-3.16769,3,,0,
11322,5198,Retola,,43.2224,-3.17254,3,,0,
11323,3162,San Antonio Elguezabal,,43.1991,-2.70711,3,,0,
11324,0109,Deustuko Unibersitatea Pio X Plaza,,43.2709,-2.9416,1,,0,
11325,4813,Atxondo,,43.1286,-2.92317,4,,0,
11326,5282,Jose Luis Goioaga Axpeko Dartsena,,43.3088,-2.97748,2,,0,
11327,3414,La Llana,,43.0998,-3.04945,4,,0,
11328,3045,Mutriku,,43.3068,-2.38827,5,,0,
11329,4456,Gobelaurre,,43.3318,-3.00307,2,,0,
11330,4139,Los Chopos 46 Fadura,,43.3487,-3.00058,2,,0,
11331,3907,Zeharkalea 31 Kiroldegia / Polideportivo,,43.187,-2.50818,5,,0,
11332,4935,Ibarzaharra Fondo Promoción Empleo,,43.2989,-3.00911,2,,0,
11333,5013,El Minero Anbulatorioa,,43.3088,-3.0523,2,,0,
11334,3943,Juan Bautista Uriarte 7 Plazakoetxe,,43.2299,-2.84683,2,,0,
11335,5499,Loibe,,43.2437,-2.99178,2,,0,
11336,4781,San Julian,,43.3323,-3.11109,3,,0,
11337,0805,Olabeaga Avda. Montevideo,,43.265,-2.9612,1,,0,
11338,4405,Sarriena Irlandesas,,43.3337,-2.98265,2,,0,
11339,4759,El Crucero,,43.3221,-3.11562,3,,0,
11340,5147,Olazar,,43.1165,-2.58441,5,,0,
11341,5416,Asua Plaza Sangroniz,,43.3003,-2.94103,2,,0,
11342,3262,Otxanduri,,43.1667,-2.92457,3,,0,
11343,4567,Udaletxea,,43.3793,-2.86758,3,,0,
11344,3518,Max Center Aldaiturriaga,,43.29,-3.01188,2,,0,
11345,4404,J. M. Barandiaran Institutua,,43.3338,-2.97449,2,,0,
11346,3367,Retuerto Av. Euskadi,,43.285,-2.99433,2,,0,
11347,5446,Teknologia - Parkea Euskaltel,,43.2948,-2.86115,2,,0,
11348,4249,Lazkao Kilómetro 11,,43.2292,-3.01565,3,,0,
11349,4790,Elizabarri,,43.0435,-2.65438,5,,0,
11350,4872,Azeta,,43.3147,-3.0122,2,,0,
11351,3152,Meatzaritzaren Museoa / Museo De La Minería,,43.3118,-3.07021,3,,0,
11352,3351,Murrieta Geltokia / Estación,,43.3002,-2.98534,2,,0,
11353,4674,Basozabal Basabitxi,,43.3446,-2.8546,3,,0,
11354,3145,El Bao,,43.321,-3.0807,3,,0,
11355,3928,Ibaizabal,,43.2317,-2.85071,2,,0,
11356,3406,Luiando Oleta,,43.0632,-2.99656,4,,0,
11357,5260,Santa Clara Komentua / Convento,,43.3136,-2.87906,2,,0,
11358,5379,Elotxelerri Nafrisa,,43.2945,-2.90111,2,,0,
11359,5421,San Juan,,43.2996,-2.92828,2,,0,
11360,4774,Santelices,,43.3166,-3.11979,3,,0,
11361,5362,Plaiabarri,,43.2966,-2.96673,2,,0,
11362,3807,Zumeltza Dima Gane,,43.0742,-2.6832,3,,0,
11363,4400,Elexalde Sakoneta,,43.3258,-2.98798,2,,0,
11364,4833,Olabarri,,43.0985,-2.91689,4,,0,
11365,5069,Sertutxa,,43.3814,-2.97901,3,,0,
11366,4159,Zientoetxe 23 Saratxaga,,43.3713,-3.01381,2,,0,
11367,5373,Astrabudua Plaza Etxegorri,,43.3168,-2.98295,2,,0,
11369,1012,Bolueta Gasolindegia / Gasolinera,,43.2469,-2.91185,1,,0,
11370,5241,Elejalde,,43.2111,-2.8739,2,,0,
11458,3989,Gorostiza,,43.2611,-3.10715,3,,0,
11459,0126,Botica Vieja Kotxetegia / Cocheras,,43.2697,-2.94089,1,,0,
11460,3725,El Cerrillo,,43.2376,-3.32584,5,,0,
11461,3684,Manzaneda,,43.2364,-3.33039,5,,0,
11462,5387,Udaletxea / Ayuntamiento,,43.3144,-2.93911,2,,0,
11463,3721,Ubal Mendatea / Puerto Ubal,,43.218,-3.4108,5,,0,
11464,3673,El Suceso,,43.2433,-3.30356,5,,0,
11465,3558,Agirre Lehendakaria 76 Ariz Dorretxea,,43.236,-2.88157,2,,0,
11466,3252,Geltokia / La Estación,,43.2331,-3.20058,4,,0,
11467,5391,Lauroeta Urdaneta,,43.3162,-2.91974,2,,0,
11468,3681,Otides,,43.2258,-3.38096,5,,0,
11469,3234,Alisedo,,43.2534,-3.23468,4,,0,
11470,5109,Malabrigo,,43.2173,-3.176,3,,0,
11471,3243,Laureta,,43.2429,-3.25279,4,,0,
11472,3726,El Cerrillo,,43.2375,-3.32601,5,,0,
11473,3237,La Cabareda,,43.2514,-3.23877,4,,0,
11474,3774,Isasi,,43.1454,-2.8314,3,,0,
11475,3728,Herboso,,43.2408,-3.32335,5,,0,
11476,4390,Unbe - Mendi 24,,43.3392,-2.92006,3,,0,
11477,3986,Pozolino,,43.2689,-3.11816,3,,0,
11478,0124,Deustuko Unibertsitatea Avda. Universidades,,43.2702,-2.93706,1,,0,
11479,3983,Villa,,43.2679,-3.12844,3,,0,
11480,3253,Puente Rolante,,43.2403,-3.21834,4,,0,
11481,3254,Puente Rolante,,43.2405,-3.21881,4,,0,
11482,3739,Sarasola,,43.1356,-2.80163,3,,0,
11483,3994,Txabarri,,43.2416,-3.09883,3,,0,
11484,3990,Garai,,43.2502,-3.10589,3,,0,
11485,9046,Atxiga,,43.3512,-3.09934,3,,0,
11486,4387,Unbe - Mendi 91,,43.3366,-2.92328,3,,0,
11487,3323,San Pelaio Begiratokia / Mirador,,43.4315,-2.80016,4,,0,
11488,5294,Andramariturri,,43.3339,-2.93552,2,,0,
11489,3618,Arene Escuela Matxitxako,,43.4347,-2.74685,4,,0,
11490,4376,Unbe - Mendi Hegoaldea / Sur,,43.3365,-2.92485,3,,0,
11491,3680,Sangrices,,43.2144,-3.42558,5,,0,
11492,3559,Mercabilbao,,43.2318,-2.88566,2,,0,
11493,4379,Amezkarai,,43.345,-2.91438,3,,0,
11494,4952,Kurutzea / La Cruz,,43.2767,-2.84561,2,,0,
11495,5107,El Mazo,,43.2223,-3.18178,3,,0,
11496,3679,Sangrices,,43.2146,-3.42594,5,,0,
11497,3660,El Suceso,,43.2433,-3.3037,5,,0,
11498,3098,Henales,,43.2485,-3.25966,5,,0,
11499,5101,Las Ribas,,43.2709,-3.14629,3,,0,
11500,5389,Azoka / Ferial,,43.3115,-2.92903,2,,0,
11501,3615,Ikastola Eleizalde,,43.4248,-2.73525,4,,0,
11502,5434,Lekunbiz,,43.2875,-2.87515,2,,0,
11503,3711,San Ciprián,,43.2219,-3.39318,5,,0,
11504,4658,Lorategi,,43.4053,-2.69967,4,,0,
11505,4391,Unbe - Mendi 17,,43.3387,-2.92246,3,,0,
11506,3242,Laureta,,43.2431,-3.25261,4,,0,
11507,5433,Domartiena,,43.2862,-2.87056,2,,0,
11508,9043,Benigno Garay,,43.266,-3.25745,5,,0,
11509,3608,Ikastola Eleizalde,,43.4243,-2.7322,4,,0,
11510,5515,La Cuesta Udaletxea / Ayuntamiento,,43.3462,-3.08908,3,,0,
11511,4956,Iberre,,43.2706,-2.82408,2,,0,
11512,5386,Landatxueta,,43.3124,-2.93528,2,,0,
11513,5384,Azoka / Ferial,,43.3114,-2.92991,2,,0,
11514,3318,Ermita San Pelaio,,43.4371,-2.78466,4,,0,
11515,3566,Etxerre,,43.2311,-2.86784,2,,0,
11516,4383,Amezkarai,,43.3447,-2.91518,3,,0,
11517,3675,Ambasaguas,,43.238,-3.3575,5,,0,
11518,5062,Vega Nueva Araztegia / Depuradora,,43.3062,-2.99764,2,,0,
11519,9018,Elexalde,,43.2357,-2.83302,2,,0,
11520,3714,San Ciprián,,43.222,-3.39292,5,,0,
11521,4378,Ikus Bide,,43.3414,-2.91787,3,,0,
11522,5396,Mikel Deunaren Enparantza,,43.3343,-2.9015,2,,0,
11523,3231,La Toba,,43.2543,-3.22487,4,,0,
11524,9026,Aiartza,,43.3067,-2.89558,2,,0,
11525,5398,Goskoetxe Jatetxea,,43.3285,-2.90499,2,,0,
11526,5382,Udaletxea / Ayuntamiento,,43.3143,-2.93938,2,,0,
11527,5246,Udaletxea / Ayuntamiento,,43.2912,-2.88754,2,,0,
11528,3716,Trespalacios,,43.2279,-3.37291,5,,0,
11529,3614,Atalaia,,43.4232,-2.72845,4,,0,
11530,3620,Albazene,,43.4375,-2.74975,4,,0,
11531,4384,Ikus Bide,,43.3415,-2.91763,3,,0,
11532,3988,Larrea,,43.2446,-3.10501,3,,0,
11533,3720,Ubal Mendatea / Puerto Ubal,,43.2175,-3.41087,5,,0,
11534,5202,Otxaran,,43.2201,-3.16781,3,,0,
11535,3678,Otides,,43.2261,-3.38077,5,,0,
11536,3948,Zuazo,,43.229,-2.85339,2,,0,
11537,3241,El Peso,,43.2433,-3.23897,4,,0,
11538,3985,Llano,,43.2698,-3.12501,3,,0,
11539,3240,El Peso,,43.2434,-3.23923,4,,0,
11540,5408,Ayalde,,43.3105,-2.89957,2,,0,
11541,5407,La Merced Ikastetxea / Colegio,,43.3131,-2.90517,2,,0,
11543,4392,Unbe - Mendi 8,,43.3366,-2.9233,3,,0,
11544,5104,El Mazo,,43.2223,-3.18045,3,,0,
11545,5388,Loiu,,43.3137,-2.94068,2,,0,
11546,4386,Unbe - Mendi Hegoaldea - Sur,,43.3362,-2.9249,3,,0,
11547,5245,Asteintza Apaiztegia / Seminario,,43.29,-2.88325,2,,0,
11548,3239,Traslosheros,,43.2478,-3.23977,4,,0,
11549,3557,Nagusia Begiratokia / Mirador,,43.2355,-2.88817,2,,0,
11550,3227,La Via,,43.2442,-3.22099,4,,0,
11551,4346,Kizkibil Vista Alegre,,43.2633,-2.80187,3,,0,
11552,5228,Retola,,43.2221,-3.17316,3,,0,
11553,3729,Sandelolla,,43.2188,-3.43066,5,,0,
11554,3553,Kareaga Goikoa 113 Udaletxea / Ayuntamiento,,43.235,-2.8912,2,,0,
11555,4955,Txakoli Loroño,,43.268,-2.81727,2,,0,
11556,3730,Sandelolla,,43.2192,-3.43044,5,,0,
11557,1013,Artxanda La Esperanza,,43.272,-2.91411,1,,0,
11558,3095,Henales,,43.2486,-3.25946,5,,0,
11559,3228,San Miguel,,43.2511,-3.22109,4,,0,
11560,0258,Campo Volantín Funikularra,,43.2671,-2.92784,1,,0,
11561,5110,Malabrigo,,43.2171,-3.17632,3,,0,
11562,5106,La Herbosa,,43.2267,-3.19056,3,,0,
11563,5411,La Merced Ikastetxea / Colegio,,43.3126,-2.90395,2,,0,
11564,3712,Treto,,43.223,-3.40619,5,,0,
11565,3722,Las Callejuelas,,43.2235,-3.36755,5,,0,
11566,3676,Ambasaguas,,43.238,-3.3572,5,,0,
11567,3091,Palacio,,43.2563,-3.26388,5,,0,
11568,5385,Larrakoetxe,,43.3129,-2.92212,2,,0,
11570,5413,Loiu,,43.3151,-2.94008,2,,0,
11571,3229,San Miguel,,43.2508,-3.22111,4,,0,
11572,3991,Humaran,,43.2343,-3.09579,3,,0,
11573,5235,Arkotxa,,43.2301,-2.86444,2,,0,
11574,3569,Karmelo Torre 4,,43.2381,-2.89718,2,,0,
11575,3093,La Matanza,,43.2447,-3.26124,5,,0,
11576,3724,El Callejo 3,,43.2334,-3.34773,5,,0,
11577,5225,Ligueti,,43.2155,-3.13548,3,,0,
11578,5406,Iberre,,43.3127,-2.91533,2,,0,
11579,5390,Larrakoetxe,,43.3118,-2.9231,2,,0,
11580,3562,Urbi 2,,43.2374,-2.877,2,,0,
11581,5100,Laiseka Torre Loizaga,,43.2704,-3.13982,3,,0,
11582,3251,Geltokia / La Estación,,43.2332,-3.20031,4,,0,
11583,5295,Uribena,,43.3097,-2.94312,2,,0,
11584,3775,Albitzu,,43.1406,-2.81426,3,,0,
11585,5061,Carrefour,,43.2998,-3.0013,2,,0,
11586,3236,La Cabareda,,43.2514,-3.23889,4,,0,
11587,4903,Abaro 22,,43.3229,-3.02107,2,,0,
11588,3315,San Pelaio Alde 75,,43.4338,-2.78627,4,,0,
11589,3096,Villanueva,,43.2486,-3.27549,5,,0,
11590,0201,Campo Volantín La Salve,,43.2697,-2.93143,1,,0,
11591,3741,Igertza,,43.1364,-2.7975,3,,0,
11592,4389,Unbe - Mendi 50,,43.3391,-2.92003,3,,0,
11593,5412,Iberre,,43.3129,-2.91408,2,,0,
11594,5400,Lauroeta Haritzmendi,,43.3233,-2.91279,2,,0,
11595,4950,Elexalde,,43.274,-2.83326,2,,0,
11597,3701,Soscaño,,43.2226,-3.36764,5,,0,
11598,3987,Soberrón,,43.2664,-3.11381,3,,0,
11599,5393,Lauroeta Munabe,,43.3249,-2.90786,2,,0,
11600,9044,Benigno Garay,,43.266,-3.25718,5,,0,
11601,3321,San Pelaio Begiratokia / Mirador,,43.4316,-2.80033,4,,0,
11602,5395,Lauroeta Aurrekoetxe,,43.3316,-2.90432,2,,0,
11603,3727,Herboso,,43.2407,-3.32287,5,,0,
11604,3992,Egoitza / Residencia,,43.2528,-3.0996,3,,0,
11605,5405,Uribena,,43.3098,-2.94283,2,,0,
11606,3248,Travesedo,,43.2347,-3.205,4,,0,
11607,3226,La Via,,43.2443,-3.22101,4,,0,
11608,3602,Arene Mirador / Begiratoki,,43.4309,-2.74132,4,,0,
11609,5397,Lauroeta Aurrekoetxe,,43.3317,-2.90444,2,,0,
11610,3674,Concha,,43.225,-3.36037,5,,0,
11611,3600,Atalaia,,43.4233,-2.72839,4,,0,
11612,3710,Llano,,43.2297,-3.37586,5,,0,
11613,3671,Las Torcachas,,43.2382,-3.31717,5,,0,
11614,5414,Elorritxu,,43.3222,-2.93626,2,,0,
11615,3545,Artunduaga Kiroldegia / Polideportivo,,43.2335,-2.8814,2,,0,
11616,5392,Lauroeta Haritzmendi,,43.3233,-2.9123,2,,0,
11617,4347,Berresonaga Mirasol,,43.2648,-2.80763,3,,0,
11618,3715,Llano,,43.2293,-3.37656,5,,0,
11619,5415,Elorritxu,,43.3222,-2.93662,2,,0,
11620,3616,Arene Asador Gibele / Erretegia,,43.4278,-2.74046,4,,0,
11621,4377,Unbe - Mendi Iparraldea / Norte,,43.3407,-2.91978,3,,0,
11622,9045,Atxiga,,43.3511,-3.09948,3,,0,
11623,3662,Las Torcachas,,43.2383,-3.31698,5,,0,
11624,3319,San Pelaio Alde 76,,43.4338,-2.78748,4,,0,
11625,5293,Andramariturri,,43.3336,-2.93552,2,,0,
11626,5410,Ayalde,,43.3103,-2.89881,2,,0,
11628,4895,General Castaños 50,,43.3221,-3.0235,2,,0,
11629,3709,Trespalacio,,43.2279,-3.37273,5,,0,
11630,5431,Larragoiti,,43.281,-2.85545,2,,0,
11632,3776,Undarraga,,43.1391,-2.81029,3,,0,
11633,5432,Arteaga,,43.2846,-2.86463,2,,0,
11634,3238,Traslosheros,,43.2478,-3.23987,4,,0,
11635,5394,Goskoetxe Jatetxea,,43.328,-2.90509,2,,0,
11636,0445,Gran Vía 62,,43.2644,-2.94072,1,,0,
11638,3249,Travesedo,,43.2346,-3.20518,4,,0,
11639,3233,La Tejera,,43.2567,-3.23245,4,,0,
11640,3245,Helechosa,,43.2424,-3.20986,4,,0,
11641,5402,Asua,,43.3044,-2.9461,2,,0,
11642,3685,Manzaneda,,43.2357,-3.33001,5,,0,
11643,3713,Treto,,43.2225,-3.40636,5,,0,
11644,3327,Ermita San Pelaio,,43.4371,-2.78436,4,,0,
11645,3094,La Llana,,43.2441,-3.26403,5,,0,
11646,3097,Villanueva,,43.2488,-3.27575,5,,0,
11647,3099,La Llana,,43.2441,-3.2642,5,,0,
11648,5111,La Puente,,43.2698,-3.25732,5,,0,
11649,3982,La Sierra,,43.2688,-3.12719,3,,0,
11650,4385,Unbe - Mendi Iparrraldea / Norte,,43.3406,-2.91984,3,,0,
11651,3235,Alisedo,,43.2533,-3.23473,4,,0,
11652,5401,Lauroeta Urdaneta,,43.3174,-2.9184,2,,0,
11653,3617,Arene 37 Escuelas Matxitxako,,43.4349,-2.74685,4,,0,
11654,5221,La Llana,,43.217,-3.14196,3,,0,
11655,3743,Palometxe,,43.1336,-2.79013,3,,0,
11656,5383,Landatxueta,,43.3122,-2.93529,2,,0,
11657,3247,La Colorada San Miguel,,43.249,-3.22068,4,,0,
11658,3700,Soscaño,,43.2237,-3.36622,5,,0,
11659,3723,El Callejo 2,,43.2334,-3.34838,5,,0,
11660,4951,Uzabal Athletic,,43.2759,-2.84177,2,,0,
11661,5227,Retola,,43.2221,-3.17286,3,,0,
11662,3670,El Callejo,,43.2333,-3.34334,5,,0,
11663,3570,Basozelai Karmelo Torre 22,,43.2364,-2.89632,2,,0,
11664,3300,Atxukarro Industrialdea 4 Jatetxea,,43.2151,-2.89066,2,,0,
11665,3225,Traslaviña,,43.2413,-3.21413,4,,0,
11666,5399,Lauroeta Munabe,,43.3251,-2.90744,2,,0,
11667,4336,Lanestosa,,43.2203,-3.43868,5,,0,
11668,3246,La Colorada San Miguel,,43.2489,-3.22056,4,,0,
11669,3232,La Tejera,,43.2568,-3.2326,4,,0,
11670,5054,Urbinaga Metro,,43.3065,-2.99292,2,,0,
11671,4388,Unbe - Mendi 55,,43.3386,-2.92238,3,,0,
11672,5105,La Herbosa,,43.2266,-3.19018,3,,0,
11673,3230,La Toba,,43.2544,-3.22458,4,,0,
11674,3966,Urbi,,43.2393,-2.87421,2,,0,
11675,3663,El Callejo,,43.2335,-3.34309,5,,0,
11676,3699,Concha,,43.225,-3.36046,5,,0,
11677,3244,Helechosa,,43.2426,-3.20976,4,,0,
11678,5222,La Flor El Paraíso,,43.22,-3.15646,3,,0,
11679,5001,San Juan De Dios Zomillo,,43.3241,-3.02612,2,,0,
11680,3976,San Pedro,,43.2547,-3.09919,3,,0,
11681,3954,Txomin Egileor Mercadillo,,43.2294,-2.85972,2,,0,
11682,3092,Palacio,,43.2562,-3.264,5,,0,
11683,3090,La Matanza,,43.2446,-3.26113,5,,0,
11685,3224,Traslaviña,,43.2413,-3.21446,4,,0,
11831,9050,Santimami,,43.2911,-2.8928,2,,0,
11832,4150,Maidagan La Venta,,43.3616,-3.01555,2,,0,
11833,9049,Santimami,,43.2912,-2.89294,2,,0,
11834,9047,Ingelesena,,43.2796,-2.59399,5,,0,
11835,4410,Ehu Ikasgelategiak / Aularios,,43.3307,-2.96523,2,,0,
11836,4149,Maidagan Parkea,,43.3599,-3.011,2,,0,
11837,4164,Maidagan Parkea,,43.3599,-3.01053,2,,0,
11838,4165,Maidagan La Venta,,43.3614,-3.01534,2,,0,
11839,9048,Ingelesena,,43.2796,-2.59506,5,,0,
11840,1306,El Peñon,,43.2173,-3.41508,5,,0,
11841,1425,Basinagre,,43.2834,-3.2587,5,,0,
11842,1421,La Quinta,,43.2789,-3.25862,5,,0,
11850,3871,Zubialdea El Boquete,,43.2444,-2.90422,2,,0,
11851,3871,Zubialdea El Boquete,,43.244,-2.90381,2,,0,
11852,3871,Kareaga Goikoa 12 El Calero,,43.2385,-2.89717,2,,0,
11853,3871,Kareaga Goikoa 26 Burritos,,43.2377,-2.89434,2,,0,
11854,3871,Kareaga Goikoa 52 Udaletxea / Ayuntamiento,,43.2354,-2.89137,2,,0,
11855,3871,Nagusia Begiratokia / Mirador,,43.2355,-2.88817,2,,0,
11856,3871,Agirre Lehendakaria 76 Ariz Dorretxea,,43.236,-2.88157,2,,0,
11857,3871,Urbi 2,,43.2374,-2.877,2,,0,
11858,3871,Urbi,,43.2393,-2.87421,2,,0,
11859,3871,Olabarrieta Poblado Firestone,,43.2373,-2.87085,2,,0,
11860,3871,Bengoetxe - La Troka,,43.2321,-2.85903,2,,0,
11861,3871,Sixta Barrenetxea,,43.2335,-2.85434,2,,0,
11862,3871,Urreta,,43.2339,-2.84906,2,,0,
11863,3871,Anbulatorioa,,43.2341,-2.84471,2,,0,
11864,3871,Udaletxea/Ayuntamiento,,43.2307,-2.84182,2,,0,
11865,3871,Zabalgane Telefonica,,43.2302,-2.83877,2,,0,
11866,3871,Abusu,,43.2306,-2.83139,2,,0,
11867,3871,Olabarri,,43.2316,-2.82412,2,,0,
11868,3871,Uraska,,43.229,-2.81883,2,,0,
11869,3871,Labeaga,,43.2251,-2.81992,2,,0,
11870,3871,Ospitalea/Hospital,,43.223,-2.81914,2,,0,
11871,3871,Geltokia/Estación,,43.3138,-2.67674,4,,0,
11872,3871,Errenteria,,43.318,-2.67436,4,,0,
11873,3871,Lorategieta,,43.3192,-2.66824,5,,0,
11874,3871,Uarka,,43.3185,-2.6543,5,,0,
11875,3871,Belendiz,,43.3194,-2.64371,5,,0,
11876,3871,Loitxiaga,,43.3226,-2.60313,5,,0,
11877,3871,Argiarro,,43.318,-2.58845,5,,0,
11878,3871,Elexalde,,43.3221,-2.58727,5,,0,
11879,3871,Burgoa,,43.3155,-2.66757,5,,0,
11880,3871,Elexalde,,43.3096,-2.66169,5,,0,
11881,3871,Ispizua,,43.3071,-2.65786,5,,0,
11882,3871,Sagartzola,,43.304,-2.65574,5,,0,
11883,3871,Marmiz,,43.2986,-2.64866,5,,0,
11884,3871,Elexalde,,43.2813,-2.6435,5,,0,
11885,3871,Mestikabaso 5,,43.3107,-2.68179,4,,0,
11886,3871,Zallo,,43.3099,-2.69797,4,,0,
11887,3871,Eleizalde,,43.3139,-2.72195,4,,0,
11888,3871,Errigoiti,,43.3188,-2.72462,4,,0,
11889,3871,Urrutia,,43.3324,-2.50781,5,,0,
11890,3871,Zelaia,,43.3466,-2.48723,5,,0,
11891,3871,Zubia,,43.3605,-2.49927,5,,0,
11892,3871,Eliza,,43.3629,-2.50239,5,,0,
11893,3871,Inguru bidea,,43.4115,-2.93587,3,,0,
11894,3871,Aita Gotzon (Metro Urduliz),,43.3778,-2.95633,3,,0,
11895,3871,Orebille,,43.4173,-2.91726,3,,0,
11896,3871,Udaletxea/Ayuntamiento Maruri,,43.3793,-2.86745,3,,0,
11897,3871,Zeinka,,43.2549,-2.55888,5,,0,
11898,3871,Gerrika,,43.2521,-2.57216,5,,0,
11899,3871,Amotxebarri,,43.3254,-2.77787,3,,0,
11900,3871,Ola,,43.3197,-2.74563,3,,0,
11901,3871,Agirreta,,43.357,-2.65288,5,,0,
11902,3871,Isla Bekoa,,43.3587,-2.65449,5,,0,
11903,3871,Isla Goikoa,,43.3595,-2.66343,5,,0,
11904,3871,Ozamiz,,43.3631,-2.6681,5,,0,
11905,3871,Kanala(Elexalde),,43.3752,-2.67207,5,,0,
11906,3871,Kanala (Jantokia),,43.3865,-2.67881,5,,0,
11907,3871,Laida (Kanpina/Camping),,43.3952,-2.68019,5,,0,
11908,3871,Laida (Hondartza/Playa),,43.3991,-2.68462,5,,0,
11909,3871,Gametxo,,43.4068,-2.6793,5,,0,
11910,3871,Anzora,,43.4091,-2.67807,5,,0,
11911,3871,Laga,,43.4078,-2.65684,5,,0,
11912,3871,Lastarria,,43.3989,-2.6463,5,,0,
11913,3871,Zubibarriaga,,43.3937,-2.64232,5,,0,
11914,3871,Akorda,,43.3915,-2.63964,5,,0,
11915,3871,Durukiz,,43.3901,-2.63412,5,,0,
11916,3871,Amotxebarri,,43.3255,-2.77797,3,,0,
11917,3871,Ola,,43.3196,-2.74587,3,,0,
11918,3871,Agirreta,,43.3565,-2.65213,5,,0,
11919,3871,Isla Bekoa,,43.3581,-2.65416,5,,0,
11920,3871,Isla Goikoa,,43.3595,-2.66368,5,,0,
11921,3871,Ozamiz,,43.3637,-2.6682,5,,0,
11922,3871,Kanala(Elexalde),,43.3787,-2.6735,5,,0,
11923,3871,Kanala (Jantokia),,43.3855,-2.67832,5,,0,
11924,3871,Laida (Kanpina/Camping),,43.3953,-2.68031,5,,0,
11925,3871,Laida (Hondartza/Playa),,43.4008,-2.68471,5,,0,
11926,3871,Gametxo,,43.4068,-2.67939,5,,0,
11927,3871,Anzora,,43.4094,-2.67726,5,,0,
11928,3871,Laga,,43.4082,-2.65601,5,,0,
11929,3871,Lastarria,,43.3988,-2.64619,5,,0,
11930,3871,Zubibarriaga,,43.3927,-2.6417,5,,0,
11931,3871,Akorda,,43.3915,-2.63993,5,,0,
11932,3871,Durukiz,,43.3905,-2.63543,5,,0,
11933,3871,Solarte,,43.3501,-2.54264,5,,0,
11934,3871,Solarte,,43.3498,-2.54232,5,,0,
11935,3871,Gallete,,43.3513,-2.54709,5,,0,
11936,3871,Gallete,,43.3507,-2.54687,5,,0,
11937,3871,Soloaran,,43.3543,-2.55715,5,,0,
11938,3871,Soloaran,,43.3534,-2.55848,5,,0,
11939,3871,Barainka,,43.3545,-2.56054,5,,0,
9333,4108,San José Zahar - Egoitza / Asilo,,43.1853,-3.05982,3,,0,
9334,4509,Trabakua,,43.2123,-2.54351,5,,0,
9335,3182,Autzagane,,43.2434,-2.71673,4,,0,
9336,4937,Alto Alday,,43.3045,-3.02835,2,,0,
9337,4131,Kautela Gandia Goikoa,,43.4028,-2.93959,3,,0,
9338,5158,Imitte,,43.1197,-2.59426,5,,0,
9339,2999,Zumalakarregi 56 Santutxu,,43.2557,-2.91095,1,,0,
9340,4244,Udaletxea / Ayuntamiento,,43.2098,-3.09469,3,,0,
9341,3505,Ureta,,43.2731,-2.99504,2,,0,
9342,4811,Prado Igerilekuak / Piscinas,,43.0105,-3.00685,5,,0,
9343,4841,Torrezar Harrobia / Cantera,,43.1262,-2.91692,4,,0,
9344,5547,Arriagane Industrialdea,,43.2277,-2.74928,3,,0,
9345,4667,Atxuri,,43.358,-2.85789,3,,0,
9346,3846,Olabe,,43.3781,-2.57556,5,,0,
9347,4487,Urizar Pilotalekua / Frontón,,43.4137,-2.90265,3,,0,
9348,5319,Magdalenabidea Magdalena,,43.3258,-2.95633,2,,0,
9349,0536,Sendeja,,43.2627,-2.92314,1,,0,
9350,3597,Zubiaur´Tar Kepa Udal Azoka,,43.4197,-2.72819,4,,0,
9351,4996,Regales 32,,43.3344,-3.04255,2,,0,
9352,4911,Primero De Mayo 53,,43.3006,-3.03233,2,,0,
9353,5532,Loiola,,43.3049,-2.64054,5,,0,
9354,1007,Txakolí,,43.265,-2.90827,1,,0,
9355,3268,Olatxu Bidetxe,,43.3276,-2.76696,3,,0,
9356,4087,Azkarai,,43.1882,-3.04534,3,,0,
9357,5527,San Roque,,43.3433,-3.08788,3,,0,
9358,3116,Trañabarren,,43.1667,-2.61102,4,,0,
9359,4000,Soietxe,,43.3353,-2.8022,3,,0,
9360,3293,Severo Ochoa 13 Caja Laboral,,43.207,-2.88668,2,,0,
9361,5283,Altzaga Pasaia / Pasaje,,43.3027,-2.97709,2,,0,
9362,4183,Algortako Etorb. 17 Txomintxu,,43.3416,-3.00946,2,,0,
9363,3415,La Llana,,43.0994,-3.04973,4,,0,
9364,1051,Moyua Plaza Ogasuna / Hacienda,,43.2626,-2.93543,1,,0,
9365,4243,Udaletxea / Ayuntamiento,,43.2107,-3.09542,3,,0,
9366,4504,Eliza,,43.3629,-2.50272,5,,0,
9367,4147,Salsidu Getxo I,,43.3535,-3.00399,2,,0,
9368,0378,Zumalakarregi 121 Begoña,,43.2604,-2.91408,1,,0,
9369,3817,Makaztui,,43.0942,-2.7164,3,,0,
9370,3410,Inzier,,43.1338,-3.03432,4,,0,
9371,0438,Campo Volantín Funikularra,,43.2672,-2.92768,1,,0,
9372,3126,Las Carreras Ambrosio De Los Heros 20,,43.3185,-3.09533,3,,0,
9373,3118,Astola,,43.1611,-2.61163,4,,0,
9374,9022,Ametza,,43.3632,-2.80764,3,,0,
9375,4044,Gorordo,,43.3693,-2.88412,3,,0,
9376,4065,Errekalde,,43.3453,-2.65316,5,,0,
9377,5018,Geltokia / Estación,,43.3119,-3.06101,2,,0,
9378,4799,Korostondo,,43.0508,-2.66082,5,,0,
9379,4584,Bidebieta,,43.3735,-2.80087,3,,0,
9380,3624,Erribera,,43.3091,-2.46889,5,,0,
9381,1057,Santa Ana Galdetegia / Fundición,,43.2468,-2.90772,1,,0,
9382,5534,Zubiate,,43.3083,-2.64349,5,,0,
9383,4374,Zugatzarte,,43.3576,-2.91493,3,,0,
9384,3340,Burtzeña Batzokia,,43.2793,-2.97902,2,,0,
9385,0150,Deustuko Unibertsitatea Pío X Plaza,,43.271,-2.94123,1,,0,
9386,1061,Zorrotza Fray Juan 8,,43.2767,-2.9716,1,,0,
9387,5286,Lutxana,,43.2912,-2.97126,2,,0,
9388,3908,Gipuzkoa Etorbidea 1,,43.1846,-2.50067,5,,0,
9389,4193,Avda. Del Angel 47 La Venta,,43.3616,-3.01606,2,,0,
9390,3490,Gernikako Arbola 73,,43.294,-2.99963,2,,0,
9391,5099,La Jara,,43.2742,-3.14825,3,,0,
9392,4074,Artekona,,43.1504,-3.10592,3,,0,
9393,5554,Ugaran,,43.3476,-2.50388,5,,0,
9394,4181,Algortako Etorb. 47 Kasinoa,,43.3482,-3.01064,2,,0,
9395,5280,Udondoko Dartsena,,43.315,-2.99052,2,,0,
9396,3782,Udaletxea / Ayuntamiento,,43.1477,-2.84887,3,,0,
9397,3656,Itxas Begi,,43.392,-2.69477,4,,0,
9398,3148,Los Heros,,43.3289,-3.0734,3,,0,
9399,4158,Zientoetxe 45 Moreaga,,43.3739,-3.01079,2,,0,
9400,3794,Aresandiaga,,43.1735,-2.90118,3,,0,
9401,2200,Termibus 11. Nasa / Andén 11,,43.2611,-2.94923,1,,0,
9402,3469,Buen Pastor,,43.2903,-2.97653,2,,0,
9403,5428,Domartiena,,43.2862,-2.87098,2,,0,
9404,4331,Kortazar,,43.3608,-2.53979,5,,0,
9405,4772,Nesilla,,43.3062,-3.12148,3,,0,
9406,3811,Arostegieta,,43.1301,-2.74434,3,,0,
9408,3399,La Torre,,43.1327,-3.11543,4,,0,
9409,4179,La Avanzada 11 Antiguo Golf,,43.3344,-3.00445,2,,0,
9411,4966,Anbulatorioa,,43.3254,-3.03409,2,,0,
9412,5528,San Roque,,43.3422,-3.0871,3,,0,
9413,3159,Txirriena,,43.2144,-2.72729,3,,0,
9414,4069,Ugarte,,43.1919,-3.04588,3,,0,
9415,5189,Goierri,,43.1759,-2.5373,5,,0,
9416,5128,Elortza,,43.3732,-2.94973,3,,0,
9417,3959,Ospitalea / Hospital,,43.2232,-2.81927,2,,0,
9418,4921,Babcock,,43.2989,-3.0137,2,,0,
9420,0263,Kastrexana,,43.2581,-2.96984,1,,0,
9421,5059,Vía Galindo 13 Inem,,43.3074,-3.00817,2,,0,
9422,1025,Elcano 16,,43.2611,-2.93396,1,,0,
9423,4483,Urondo,,43.4266,-2.89932,3,,0,
9424,4107,Sandamendi Pontón,,43.1788,-3.08497,3,,0,
9425,4748,Las Duchas,,43.3287,-3.13209,3,,0,
9426,3769,Areiltza,,43.1508,-2.8652,3,,0,
9427,3506,Gorostiza Kiroldegia / Polideportivo,,43.2788,-2.99291,2,,0,
9428,4617,Okoriko,,43.2922,-2.76059,3,,0,
9429,5301,Arriluze,,43.3109,-2.96385,2,,0,
9430,3965,Zabalgane Telefonica,,43.2302,-2.83877,2,,0,
9431,3335,San Ignacio 25,,43.2842,-2.99009,2,,0,
9432,4585,Emerando,,43.3804,-2.79036,3,,0,
9433,4962,Gernika Parkea,,43.3289,-3.03488,2,,0,
9434,3523,Zumalakarregi Kotxetegia / Cocheras,,43.2845,-2.97628,2,,0,
9435,4761,Somorrostro Ikastetxea,,43.322,-3.12328,3,,0,
9436,1058,Termibus 22 - 29 Nasak / Andenes 22 - 29,,43.2613,-2.95023,1,,0,
9437,3350,Balejo Bolatokia / Bolera,,43.2855,-2.98405,2,,0,
9438,4954,Txakoli Loroño,,43.2679,-2.81764,2,,0,
9439,3960,Bizkai 12,,43.2326,-2.84053,2,,0,
9440,4016,Laukike,,43.3294,-2.82651,3,,0,
9441,4688,Anibarri,,43.3321,-2.83207,3,,0,
9442,5287,Enekuri,,43.2895,-2.96064,2,,0,
9443,4414,Iturriondo Metro Leioa,,43.3185,-2.99096,2,,0,
9445,3856,Longa,,43.3812,-2.60642,5,,0,
9446,4803,Astilleru,,43.3192,-2.42131,5,,0,
9447,0628,Gran Vía 45 Sota,,43.2633,-2.93684,1,,0,
9448,5124,Dobaran,,43.3669,-2.92189,3,,0,
9449,4342,Larrabetzu,,43.2621,-2.79581,3,,0,
9450,3179,La Tejera,,43.2188,-2.74002,3,,0,
9451,5077,Atxabiribil Bidegurutzea / Cruce,,43.3852,-2.98429,3,,0,
9452,4428,Lamiako Metro,,43.3219,-3.00133,2,,0,
9453,5341,Gernika Etorbidea Telefónica,,43.3029,-2.97179,2,,0,
9454,3392,Puente Llanteno,,43.1404,-3.10745,4,,0,
9455,3267,Amotxebarri,,43.3254,-2.77788,3,,0,
9456,4554,Zubibarri,,43.2345,-2.53138,5,,0,
9457,3390,Venta Los Aires Lekamaña,,43.0184,-3.01069,4,,0,
9458,4122,Kiroldegia / Polideportivo,,43.4167,-2.93741,3,,0,
9459,3510,La Florida 7,,43.2928,-2.98669,2,,0,
9460,4123,Urezarantza Entrepinos,,43.4206,-2.93498,3,,0,
9461,4869,Abaro 11,,43.322,-3.02088,2,,0,
9462,3631,Bekokale,,43.3117,-2.46375,5,,0,
9463,3969,El Bentorro Arenao,,43.2801,-3.13954,3,,0,
9464,0104,Sarriko Lehendakari Aguirre 83,,43.2738,-2.95759,1,,0,
9465,3431,Gardea Eliza / Iglesia,,43.1254,-2.9806,4,,0,
9466,5353,Mezo 41 Elexazpi,,43.3158,-2.97807,2,,0,
9467,4936,Ibarzaharra Fondo Promoción Empleo,,43.2987,-3.00687,2,,0,
9468,4582,Likona,,43.3503,-2.48964,5,,0,
9469,4458,Santa Ana,,43.322,-3.00934,2,,0,
9470,4782,Kiroldegia / Polideportivo,,43.3224,-3.11791,3,,0,
9471,3038,Otaola Hiribidea Alfa,,43.1829,-2.48109,5,,0,
9472,3929,Bengoetxe,,43.2325,-2.85946,2,,0,
9473,3451,Gorostiola,,43.1606,-3.02589,4,,0,
9474,4048,Basetxeta,,43.3668,-2.64016,5,,0,
9475,3357,San Vicente Anteiglesia Plaza,,43.2952,-2.99683,2,,0,
9476,4162,Zientotxea S / N Palacio,,43.3652,-3.01796,2,,0,
9477,4818,Albiorreta,,43.0781,-2.9176,4,,0,
9478,3354,Los Hermanos Juntas Generales 30,,43.2983,-2.99069,2,,0,
9479,3623,Gardotza,,43.3185,-2.45642,5,,0,
9480,3942,Juan Bautista Uriarte 37 Zamakoa,,43.2303,-2.84408,2,,0,
9481,3113,Muntsaratz,,43.1461,-2.60657,4,,0,
9482,4595,Mesterika,,43.3624,-2.80288,3,,0,
9483,4652,Estrata,,43.2978,-2.72871,4,,0,
9484,4776,San Julián,,43.3332,-3.11321,3,,0,
9485,3135,El Minero 33,,43.3119,-3.07307,3,,0,
9486,4425,Ehu Errektoretza / Rectorado,,43.3322,-2.97196,2,,0,
9487,5339,Altzaga - Erandiogoikoa Basabe,,43.3015,-2.96924,2,,0,
9488,0125,Deustuko Unibertsitatea Avda. Universidades,,43.2703,-2.93692,1,,0,
9489,1052,Moyua Plaza Barclays Bank,,43.2635,-2.93506,1,,0,
9490,5291,Enekuri,,43.2892,-2.9614,2,,0,
9491,4177,Algortako Etorb. 74 Kasinoa,,43.3481,-3.0104,2,,0,
9492,4207,Mayor Kalea 16,,43.3259,-3.01288,2,,0,
9493,4120,Urezarantza Entrepinos,,43.4206,-2.93513,3,,0,
9494,3107,Zelaieta,,43.1501,-2.61057,4,,0,
9495,4289,Elejalde 12,,43.3898,-2.63122,5,,0,
9496,3767,Olatxu,,43.1543,-2.87474,3,,0,
9498,3461,Villa Chica Eliza / Iglesia,,43.1504,-3.03107,4,,0,
9499,4972,Balparda,,43.3193,-3.04517,2,,0,
9500,3795,Uriondo,,43.1625,-2.88541,3,,0,
9501,4693,Atxuri,,43.3585,-2.85841,3,,0,
9502,4683,Beasko Maurolas,,43.3293,-2.87158,3,,0,
9503,3436,Tubacex,,43.1338,-2.97102,4,,0,
9504,4666,Trobika Auzoa,,43.3578,-2.83666,3,,0,
9505,4258,Zeribai,,43.1991,-3.05541,3,,0,
9506,4963,Anbulatorioa,,43.3248,-3.03488,2,,0,
9507,4686,Belako,,43.3461,-2.81828,3,,0,
9508,3271,Olatxu Bidetxe,,43.3277,-2.76664,3,,0,
9509,4785,San Juan 16,,43.3229,-3.12741,3,,0,
9510,3874,L. Leguizamon Industrialdea Biribilgunea / Rotonda,,43.2512,-2.89154,2,,0,
9511,3428,Gurutz Gorria / Cruz Roja,,43.1387,-2.96723,4,,0,
9512,3188,San Pedro Geralekua / Apeadero,,43.2221,-2.735,3,,0,
9513,5507,Kortatxu,,43.2382,-3.00115,2,,0,
9514,4961,Parkea / Parque Capitán Mendizabal 2,,43.3302,-3.03237,2,,0,
9515,4026,Garai Irubide,,43.3599,-2.87758,3,,0,
9516,4601,Torre De Ugao Geltokia / Estación,,43.1793,-2.90252,3,,0,
9517,4205,Santa Ana 2,,43.3252,-3.01339,2,,0,
9518,5178,Igorreko Industrialdea,,43.1592,-2.77353,3,,0,
9519,5141,Institutua / Instituto,,43.1914,-3.18998,4,,0,
9520,3309,Olaskoetxe Irubide,,43.4272,-2.81178,4,,0,
9521,3166,Berna,,43.187,-2.67583,3,,0,
9522,3554,Kareaga Goikoa 111 Udaletxea / Ayuntamiento,,43.2357,-2.8912,2,,0,
9523,5167,Areatza,,43.1213,-2.76993,4,,0,
9524,5467,Goierria,,43.3512,-2.68221,4,,0,
9525,5035,Chavarri Gasolindegia / Gasolinera,,43.3133,-3.01076,2,,0,
9526,3838,Zarakondegi,,43.3701,-2.56561,5,,0,
9530,5381,Larrondo Elotxelerri,,43.2971,-2.9128,2,,0,
9531,5214,San Pedro Zarikete Ermita,,43.2095,-3.14098,3,,0,
9533,9030,Musakola,,43.0712,-2.47241,5,,0,
9535,4023,Zurbano,,43.3499,-2.88844,3,,0,
9536,4838,Olabarri,,43.0992,-2.91602,4,,0,
9538,4036,Zurbano,,43.35,-2.89118,3,,0,
9540,3171,Gane,,43.2162,-2.72843,3,,0,
9541,5463,Elejalde,,43.3395,-2.65517,5,,0,
9542,4283,Okamika,,43.3305,-2.54308,5,,0,
9543,5182,Garakoi,,43.1783,-2.77509,3,,0,
9544,5422,Izarza Eliza / Iglesia,,43.2973,-2.92595,2,,0,
9545,4231,La Cuadra,,43.2242,-3.02429,3,,0,
9546,4237,Lakabex Iberdrola,,43.218,-3.02885,3,,0,
9547,4135,Sertutxe,,43.4169,-2.92677,3,,0,
9548,0271,Zorrotza,,43.275,-2.97275,1,,0,
9549,3522,La Paz 43,,43.2821,-2.99035,2,,0,
9550,5331,Altzaga - Erandiogoikoa Uribarri,,43.3038,-2.95965,2,,0,
9551,5040,Urbinaga La Naval,,43.3063,-2.98945,2,,0,
9552,4236,Sodupe Gelokia / Estación,,43.2022,-3.05049,3,,0,
9553,3855,Urtubia,,43.3708,-2.57566,5,,0,
9554,4814,Bengoetxea Artiach,,43.1231,-2.91412,4,,0,
9555,4472,Arraibi - Tallerreta,,43.2078,-2.76951,3,,0,
9556,4867,General Castaños 2 El Cristo,,43.3196,-3.01736,2,,0,
9557,3477,Llano,,43.2864,-2.98302,2,,0,
9558,3404,Luiando Magaratxi,,43.0663,-2.99883,4,,0,
9559,3793,Aresandiaga,,43.1737,-2.90154,3,,0,
9560,0526,Atxuri 4,,43.255,-2.9222,1,,0,
9561,3210,Urebei,,43.2746,-2.59384,5,,0,
9562,4754,El Haya,,43.3385,-3.15108,3,,0,
9563,3165,Berna,,43.1868,-2.67555,3,,0,
9564,3916,Bengoetxe,,43.2321,-2.85899,2,,0,
9565,5075,Ander Deuna Ermita,,43.3905,-2.97887,3,,0,
9566,9027,Bizkotxalde,,43.2403,-2.88598,2,,0,
9567,5160,Apatamonasterio,,43.1297,-2.58414,5,,0,
9568,5537,Loiola,,43.3057,-2.64065,5,,0,
9569,4160,Zientoetxe 19 Martiturri,,43.3689,-3.01608,2,,0,
9570,4008,Gamiz,,43.3268,-2.81818,3,,0,
9571,3868,Udaletxea / Ayuntamiento,,43.2463,-2.89181,2,,0,
9572,4112,Elexalde Udaletxea / Ayuntamiento,,43.4145,-2.9336,3,,0,
9573,4668,Atxuri,,43.3581,-2.85476,3,,0,
9574,1020,Iberdrola,,43.2471,-2.98087,1,,0,
9575,4326,Gardata,,43.3638,-2.51902,5,,0,
9576,4499,Zubitxu Hilerria / Cementerio,,43.4087,-2.90333,3,,0,
9577,4261,Artxube,,43.2006,-3.07077,3,,0,
9578,3130,El Casal,,43.322,-3.07232,3,,0,
9579,4943,Salcedillo,,43.3045,-3.02103,2,,0,
9580,4330,Kortazar,,43.36,-2.53717,5,,0,
9581,5187,Avenida Bilbao,,43.1696,-2.55,5,,0,
9582,4501,Sabino Arana Telefónica,,43.3635,-2.50901,5,,0,
9583,4629,Sagasti Meakaur,,43.3075,-2.74592,3,,0,
9584,5098,La Baluga,,43.274,-3.15609,3,,0,
9585,3952,Zabalgane,,43.2302,-2.83834,2,,0,
9586,4724,Beko Kale Torrebillela,,43.3538,-2.84871,3,,0,
9587,4452,Artatza Landabarri,,43.3321,-2.9971,2,,0,
9588,4110,Puente Busterri Aterpetxea / Albergue,,43.412,-2.94411,3,,0,
9589,5220,Mimetiz Udaletxea / Ayuntamiento,,43.2141,-3.13405,3,,0,
9590,4116,Itsasbide Caja Laboral,,43.4135,-2.93608,3,,0,
9591,4758,Las Llanas,,43.3236,-3.12855,3,,0,
9592,1056,Santa Ana Galdategia / Fundición,,43.2467,-2.90794,1,,0,
9593,3876,San Antonio,,43.2514,-2.88351,2,,0,
9594,3935,Labeaga,,43.2249,-2.8199,2,,0,
9595,5363,Plaiabarri,,43.2967,-2.96683,2,,0,
9596,4593,Meñakabarrena,,43.35,-2.79839,3,,0,
9597,4362,Mentxakaetas Erreskondo,,43.3633,-2.91923,3,,0,
9598,3039,Unibertsitatea Laborala / Universidad Laboral,,43.1802,-2.48821,5,,0,
9599,3036,Escuela Armeria / Armeria Eskola Armeria,,43.1833,-2.47915,5,,0,
9600,5458,Agarregane,,43.3452,-2.67917,4,,0,
9601,2197,Abando Geltokia / Estación,,43.2602,-2.92877,1,,0,
9602,4077,Allende,,43.1677,-3.10069,3,,0,
9603,1014,Artxanda El Gallo,,43.2707,-2.91072,1,,0,
9604,5190,Lanbide Unibertsitatea / Universidad Laboral,,43.179,-2.49031,5,,0,
9605,3282,Urgoiti Anbulatorioa,,43.2078,-2.88795,2,,0,
9606,3157,Boroa,,43.2286,-2.75312,3,,0,
9607,4655,Kurtzero,,43.2893,-2.68963,4,,0,
9608,3773,Ermitabarri,,43.1464,-2.83328,3,,0,
9609,4140,Ollaretxe 8 Getxo I,,43.3536,-3.00486,2,,0,
9610,5404,Aireportua / Aeropuerto Etorrerak / Llegadas,,43.3054,-2.90529,2,,0,
9612,4912,Primero De Mayo Udaletxea / Ayuntamiento,,43.3044,-3.03653,2,,0,
9613,4375,Mentxakaetas Erreskondo,,43.3638,-2.91925,3,,0,
9614,4409,Lamiako Pasai,,43.3187,-3.00543,2,,0,
9616,4512,Zengotita,,43.1974,-2.55518,5,,0,
9617,3967,Altzadi Plaza,,43.2328,-2.84422,2,,0,
9618,4093,Isuskiza Hipika,,43.1696,-3.02834,3,,0,
9619,5289,Etxegorri Metro,,43.315,-2.98613,2,,0,
9620,3541,Goierri,,43.3958,-2.97412,3,,0,
9621,4105,Mazukera,,43.158,-3.10547,3,,0,
9622,5544,Mendikoi Hotel Laia,,43.2939,-2.87159,2,,0,
9623,5205,Aranguren,,43.2107,-3.11491,3,,0,
9624,3920,Olabarri,,43.2316,-2.82413,2,,0,
9625,3183,Autzagane,,43.2437,-2.71864,4,,0,
9626,5155,Olazabal,,43.1122,-2.59613,5,,0,
9627,4168,Los Chopos 11 Ardillas,,43.336,-3.0041,2,,0,
9628,4478,Larrabeiti,,43.2038,-2.77325,3,,0,
9629,4757,Las Duchas,,43.3278,-3.13199,3,,0,
9630,5359,Enekuri Gasolindegia / Gasolinera,,43.286,-2.95838,2,,0,
9631,4441,Amaia Anbulatorioa,,43.3243,-3.00756,2,,0,
9632,4251,Iorgi 21b,,43.206,-3.04644,3,,0,
9633,5502,Nuestra Señora De La Guía,,43.2355,-3.01218,2,,0,
9634,4297,Arriederra,,43.3853,-2.63441,5,,0,
9635,3301,Goikolea,,43.4038,-2.81099,4,,0,
9636,4463,Aldekoena,,43.3333,-2.98487,2,,0,
9637,5045,Las Llanas,,43.3098,-3.00907,2,,0,
9638,4505,Eliza,,43.3629,-2.50218,5,,0,
9639,4250,Olabarrieta Las Jarretas,,43.2095,-3.0414,3,,0,
9640,5081,Urgitxieta,,43.3755,-2.98986,3,,0,
9641,5206,Aranguren,,43.2107,-3.11542,3,,0,
9642,4498,Olalde,,43.4166,-2.90449,3,,0,
9643,3628,Atxurra,,43.3246,-2.49315,5,,0,
9644,5483,Mallabiena,,43.1765,-2.64376,4,,0,
9645,4241,Sodupe Herriko Enparantza,,43.2003,-3.04829,3,,0,
9646,5219,San Pedro Zarikete Ermita,,43.2095,-3.14083,3,,0,
9647,5175,Gezala,,43.172,-2.77656,3,,0,
9648,5313,Lukileze,,43.3007,-2.96169,2,,0,
9649,3035,Pol. Otaola Otaola,,43.1817,-2.4828,5,,0,
9650,4170,Bizkaia Zubia / Puente Bizkaia,,43.324,-3.01547,2,,0,
9651,4343,Goikola,,43.266,-2.79094,3,,0,
9652,4839,Urrexola,,43.0768,-2.923,4,,0,
9653,3535,Zahar - Egoitza / Asilo,,43.4053,-2.96359,3,,0,
9654,3806,Zumeltza Dima Gane,,43.073,-2.68242,3,,0,
9655,5478,Arriandi,,43.1818,-2.65723,4,,0,
9656,5011,Etxaba,,43.3079,-3.04556,2,,0,
9657,0604,Alameda Recalde 14,,43.2661,-2.93381,1,,0,
9658,4397,Artatza Suhiltzaileak / Bomberos,,43.3305,-2.99623,2,,0,
9659,4878,Carlos VII 4,,43.3201,-3.02083,2,,0,
9660,4745,El Crucero,,43.3222,-3.11609,3,,0,
9662,0922,Juan De Garay Torre Urizar,,43.2526,-2.93432,1,,0,
9663,3653,Axpe,,43.3822,-2.6987,4,,0,
9664,5181,Garbe,,43.1613,-2.78301,3,,0,
9665,4229,Gobela Ikastola,,43.3382,-2.99959,2,,0,
9666,3798,Dima Plaza,,43.1432,-2.75201,3,,0,
9667,3801,Dima Plaza,,43.1432,-2.75194,3,,0,
9668,5047,Hilerria / Cementerio,,43.3122,-3.01299,2,,0,
9669,3328,Burtzeña Pilotalekua / Frontón,,43.2803,-2.97816,2,,0,
9670,4705,Landabarrena,,43.3895,-2.79933,3,,0,
9671,3173,Boroa,,43.229,-2.75397,3,,0,
9672,4930,Funikular Kalea,,43.3037,-3.03863,2,,0,
9673,5454,Torrelarragoiti,,43.2756,-2.85179,2,,0,
9674,3517,Obispo Olaetxea,,43.2903,-2.97519,2,,0,
9675,5517,San Mamés,,43.3502,-3.09603,3,,0,
9676,3412,Zerrabe,,43.1063,-3.04519,4,,0,
9677,4148,Salsidu Basotxi,,43.3555,-3.00143,2,,0,
9678,4969,Igerilekuak / Piscinas,,43.327,-3.02574,2,,0,
9679,5258,San Cristobal,,43.3001,-2.87815,2,,0,
9680,5265,Ugaldeguren Industrialdea,,43.2894,-2.88951,2,,0,
9681,4184,Algortako Etorb. 13 Regoyos,,43.3388,-3.00877,2,,0,
9682,4189,Eduardo Coste,,43.3209,-3.01154,2,,0,
9683,2199,Abando Geltokia / Estación,,43.26,-2.92919,1,,0,
9684,4682,Bolatoki,,43.3348,-2.86609,3,,0,
9685,4298,Arriederra,,43.3853,-2.63421,5,,0,
9686,0917,Bizkaia Plaza,,43.2603,-2.93721,1,,0,
9687,9024,Gallarta,,43.3174,-3.07469,3,,0,
9688,4196,San Martin 33 - 35,,43.3556,-3.0124,2,,0,
9689,3647,Eitua Industrialdea Estampados,,43.167,-2.58505,5,,0,
9690,4035,Botiola,,43.354,-2.88338,3,,0,
9691,4752,Las Acacias,,43.3204,-3.13003,3,,0,
9692,3213,Astorkigane,,43.2726,-2.60715,5,,0,
9693,5242,Hilerria / Cementerio,,43.2926,-2.89306,2,,0,
9694,5512,Virgen Del Puerto Lazkano,,43.3515,-3.07971,3,,0,
9695,4526,Dokaitz / Donagarai,,43.2134,-2.538,5,,0,
9696,3109,Andra Mari,,43.1431,-2.60318,4,,0,
9697,4622,Ola,,43.3199,-2.74632,3,,0,
9698,3120,Zubibitarte,,43.1687,-2.61202,4,,0,
9699,9016,Aizpuru,,43.3099,-3.00725,2,,0,
9700,4904,Azeta,,43.3155,-3.01238,2,,0,
9701,3621,Erribera,,43.3092,-2.46843,5,,0,
9702,4479,Txitxotegi,,43.1928,-2.77554,3,,0,
9703,4507,Zubia,,43.3607,-2.49913,5,,0,
9704,4953,Iberre,,43.27,-2.82215,2,,0,
9705,5034,Chavarri 34 Arboleda,,43.3124,-3.0076,2,,0,
9706,3277,Libao Arrieta,,43.3418,-2.76932,3,,0,
9707,3191,Ategorri,,43.227,-2.73054,3,,0,
9708,3843,Beñaga Tres Cruces,,43.3824,-2.6176,5,,0,
9709,4051,Zelaieta Arteaga,,43.3529,-2.65082,5,,0,
9710,3555,Kareaga Goikoa 79 Burritos,,43.2379,-2.89456,2,,0,
9711,3160,Montorra,,43.2058,-2.71501,3,,0,
9712,3847,Olabe,,43.378,-2.57536,5,,0,
9713,3343,El Desierto Plaza,,43.3018,-2.98322,2,,0,
9714,4081,Zubieta 10 La Industria,,43.1806,-3.06871,3,,0,
9715,4480,Txitxotegi,,43.1932,-2.7754,3,,0,
9716,3190,San Miguel,,43.2181,-2.73074,3,,0,
9717,5072,Zipiriñe Akilino Arriola,,43.3788,-2.98651,3,,0,
9719,4220,Andra Mari,,43.3638,-3.01666,2,,0,
9720,3735,Ugarte,,43.128,-2.77839,3,,0,
9721,3771,Udaletxea / Ayuntamiento,,43.1475,-2.84912,3,,0,
9722,4366,Uribarri,,43.3502,-2.9027,3,,0,
9723,5548,Ugaran,,43.3471,-2.50334,5,,0,
9724,4581,Likona,,43.3511,-2.48978,5,,0,
9725,1053,Moyua Plaza Deutsche Bank,,43.2633,-2.93452,1,,0,
9726,3442,Areta 4 Geltokia / Estación,,43.1458,-2.94292,4,,0,
9727,4859,Mungia Bidea 14,,43.4044,-2.94357,3,,0,
9728,4723,Elorduigoitia 5 Inem,,43.3553,-2.8467,3,,0,
9729,3444,La Cadena,,43.1364,-2.93596,4,,0,
9730,3133,Institutua / Instituto,,43.3173,-3.07461,3,,0,
9731,3951,Uraska,,43.2276,-2.8194,2,,0,
9732,4320,Goikoetxe,,43.3854,-2.62183,5,,0,
9733,4995,Regales 4,,43.3327,-3.04017,2,,0,
9734,4739,Angiz,,43.3037,-2.54611,5,,0,
9735,3261,Arene Anbulatorioa,,43.1726,-2.91999,3,,0,
9736,3138,Udaletxea / Ayuntamiento,,43.3207,-3.07296,3,,0,
9737,4267,Carlos Gangoiti,,43.3198,-2.67844,4,,0,
9738,4169,Eduardo Coste,,43.3209,-3.01106,2,,0,
9739,5553,Arana Seat,,43.2955,-2.68689,4,,0,
9740,3583,Landaida Anbulatorioa,,43.3693,-2.99866,2,,0,
9741,5163,Gane,,43.2121,-2.81036,3,,0,
9742,4046,Zelaieta Arteaga,,43.3529,-2.65069,5,,0,
9743,4103,Zabaia Bekoa,,43.174,-3.02901,3,,0,
9744,3409,Menagarai,,43.0965,-3.07311,4,,0,
9745,5303,Altzaga - Erandiogoikoa Irubideta,,43.3043,-2.96219,2,,0,
9746,5263,Abeletxea / Granja,,43.2946,-2.86868,2,,0,
9747,5524,Virgen Del Puerto Lazkano,,43.3514,-3.07965,3,,0,
9748,4826,Aranguren,,43.0967,-2.86982,4,,0,
9749,4454,Telleria Biribilgunea / Rotonda,,43.3372,-2.99663,2,,0,
9750,4519,Urtiaga Industrialdea Ges,,43.186,-2.51993,5,,0,
9751,4736,Astudi,,43.29,-2.5811,5,,0,
9752,5153,Santiago,,43.1091,-2.58557,5,,0,
9753,5046,Hilerria / Cementerio,,43.3125,-3.01273,2,,0,
9754,4327,Gardata,,43.3639,-2.51907,5,,0,
9755,3108,Muntsaratz,,43.1456,-2.60632,4,,0,
9756,5360,Axpe Erribera,,43.3131,-2.98343,2,,0,
9757,3218,Agarre,,43.2736,-2.61739,5,,0,
9758,5325,Libao Arostegi,,43.3303,-2.96225,2,,0,
9759,3175,Astepe,,43.2131,-2.74152,3,,0,
9760,4938,Galindo,,43.3053,-3.01718,2,,0,
9761,4976,Iparragirre Sardinera,,43.3354,-3.04155,2,,0,
9762,4977,Iparragirre Sardinera,,43.3353,-3.04165,2,,0,
9763,5176,Urkizu,,43.1835,-2.77417,3,,0,
9764,4643,Bidakurtze,,43.2932,-2.71367,4,,0,
9765,5354,Mezo 35 Juanena,,43.3167,-2.98095,2,,0,
9766,4993,Regales 11 - 15,,43.3342,-3.04251,2,,0,
9767,5254,Aldekone,,43.2984,-2.88607,2,,0,
9768,4264,Lurgorri Juan Calzada,,43.3066,-2.68135,4,,0,
9769,4657,Astelarra,,43.2806,-2.68493,4,,0,
9770,4712,Aita Elorriaga Institutua,,43.3528,-2.84244,3,,0,
9771,4726,La Bilbaina Arritugane,,43.3207,-2.86137,3,,0,
9772,3759,Ugunagane,,43.1121,-2.76337,4,,0,
9773,3879,San Pío X,,43.1305,-2.54551,5,,0,
9774,5366,Mezo 36 Elexazpi,,43.3157,-2.9782,2,,0,
9775,3852,Biax,,43.3819,-2.57672,5,,0,
9776,3195,Tantorta,,43.2256,-2.74357,3,,0,
9777,5435,Sandoikalde,,43.2887,-2.85605,2,,0,
9778,3478,Erreketa,,43.3013,-2.98214,2,,0,
9779,4359,Urkulu,,43.2516,-2.80016,3,,0,
9780,1010,Berriz Tiro Zelaia / Campo De Tiro,,43.2795,-2.94527,1,,0,
9781,4990,Iparragirre Iberdrola,,43.3393,-3.05059,2,,0,
9782,5257,San Cristobal,,43.3001,-2.87841,2,,0,
9783,4830,Jauregia,,43.1012,-2.88956,4,,0,
9784,3956,Sixta Barrenetxea,,43.2336,-2.85402,2,,0,
9785,4495,Agarrabesko,,43.4207,-2.91278,3,,0,
9786,9020,Mesterika,,43.3623,-2.80307,3,,0,
9787,0839,San Ignacio Lehendakari Aguirre 154,,43.2789,-2.96122,1,,0,
9788,3219,Berreño,,43.2733,-2.61114,5,,0,
9789,0838,San Ignacio Lehendakari Aguirre 140,,43.2769,-2.96009,1,,0,
9790,4259,Zeribai,,43.199,-3.05529,3,,0,
9791,3452,Irabien Batzokia,,43.1574,-3.0262,4,,0,
9792,4787,El Pobal,,43.2992,-3.12577,3,,0,
9793,3286,Bentako Erreka,,43.1893,-2.8991,2,,0,
9794,4371,Uribarri,,43.3504,-2.90259,3,,0,
9795,3153,Meatzaritzaren Museoa / Museo De La Minería,,43.3122,-3.07026,3,,0,
9796,4623,Duo,,43.2965,-2.75819,3,,0,
9797,4628,Sagasti Meakaur,,43.3076,-2.74577,3,,0,
9798,3821,Santuru,,43.1483,-2.76284,3,,0,
9799,4837,Oketa Beti,,43.0943,-2.91746,4,,0,
9800,3383,Elexondo,,43.0539,-2.99865,4,,0,
9801,3121,Gerediaga,,43.17,-2.60475,4,,0,
9802,0806,Zorrotza,,43.276,-2.97162,1,,0,
9803,4817,Albiorreta,,43.0786,-2.9174,4,,0,
9804,9029,Sixta Barrenetxea,,43.2335,-2.85434,2,,0,
9805,4770,Antonio Trueba,,43.322,-3.11457,3,,0,
9806,5204,Lusa,,43.2133,-3.13002,3,,0,
9807,4868,Abaro 10,,43.322,-3.02064,2,,0,
9808,5498,Lasao,,43.2455,-2.98716,2,,0,
9809,3453,Irabien Vital Kutxa,,43.1553,-3.02692,4,,0,
9810,5000,Parkea / Parque Siglo XVIII,,43.3284,-3.03061,2,,0,
9811,3734,Herriko Plaza,,43.1328,-2.78303,3,,0,
9812,5052,Gran Vía 64 Zahar - Egoitza / Asilo,,43.3076,-2.99817,2,,0,
9813,4929,Trapaga Auzoa,,43.2993,-3.01923,2,,0,
9814,3380,Aldaiturriaga,,43.0374,-3.00613,4,,0,
9815,3598,Etxetxubarri Mikel Deuna,,43.4195,-2.73771,4,,0,
9816,3924,Askarri,,43.2337,-2.8135,2,,0,
9817,5444,Bidekurtze,,43.2963,-2.86525,2,,0,
9818,3467,Larrea 17,,43.2976,-2.98122,2,,0,
9819,5332,Altzaga - Erandiogoikoa Elexalde,,43.3075,-2.95794,2,,0,
9820,4942,El Juncal Ford,,43.294,-3.01431,2,,0,
9821,4645,Etxe Barriak,,43.2916,-2.70245,4,,0,
9822,4282,Elexalde,,43.3313,-2.53725,5,,0,
9823,3377,Saratxo Eliza / Iglesia,,43.0237,-3.01096,4,,0,
9824,1060,Zabalburu Juan De Garay,,43.2567,-2.93382,1,,0,
9825,3480,Resurrección Maria Azkue 33,,43.2897,-2.9952,2,,0,
9826,5356,Enekuri San Pablo,,43.2876,-2.95757,2,,0,
9827,3432,Altui,,43.122,-2.98354,4,,0,
9828,5215,Ibarra La Madalena,,43.2045,-3.14468,3,,0,
9829,3914,Fruiz,,43.3277,-2.78459,3,,0,
9830,3274,Olabarri,,43.3274,-2.75501,4,,0,
9831,4049,Basetxeta,,43.3668,-2.63993,5,,0,
9832,5500,Arbuio,,43.2362,-3.00747,2,,0,
9833,4751,El Haya,,43.3386,-3.15085,3,,0,
9834,5480,Akiñena,,43.1837,-2.66351,4,,0,
9835,4210,Bidezabal Venancios,,43.3579,-3.00913,2,,0,
9836,4033,Garai Irubide,,43.3598,-2.87899,3,,0,
9837,5088,Abellaneda Eliza / Iglesia,,43.2306,-3.15983,3,,0,
9838,4255,Padura,,43.1951,-3.04757,3,,0,
9839,3425,Altzarrate Anbulatorioa,,43.1468,-2.95795,4,,0,
9840,5050,Vicente Blasco Ibáñez San Pedro Plaza,,43.3078,-3.0049,2,,0,
9841,3336,Retuerto 28,,43.2836,-2.99742,2,,0,
9842,4351,Astoreka Zabortegia / Vertedero,,43.2786,-2.77422,3,,0,
9843,5466,Barrutia,,43.3249,-2.66715,5,,0,
9844,4900,Aspaldiko Egoitza / Residencia,,43.3195,-3.02912,2,,0,
9845,4710,Tejera,,43.3457,-2.81107,3,,0,
9846,5083,La Baluga,,43.274,-3.15518,3,,0,
9847,3588,Harrizurieta,,43.3882,-2.77115,4,,0,
9848,3411,El Valle,,43.12,-3.03961,4,,0,
9849,3593,Sollube Gane,,43.405,-2.76054,4,,0,
9850,0836,San Ignacio Lehendakari Aguirre 161,,43.2794,-2.96178,1,,0,
9851,3455,Villa Chica Eliza / Iglesia,,43.1506,-3.0311,4,,0,
9852,3800,Indusi,,43.1211,-2.73523,3,,0,
9853,4735,Goikolea,,43.286,-2.58568,5,,0,
9854,4641,Estrata,,43.2976,-2.72899,4,,0,
9855,4318,Apraiz,,43.3875,-2.63173,5,,0,
9856,2196,Abando Geltokia / Estación,,43.2604,-2.92845,1,,0,
9857,4292,Arboliz,,43.3889,-2.62435,5,,0,
9858,4050,Muruetagane,,43.3594,-2.6383,5,,0,
9859,3627,Aierdi,,43.3172,-2.47866,5,,0,
9860,5028,Udaletxea / Ayuntamiento,,43.3105,-3.0574,2,,0,
9861,4824,Jauregia,,43.1015,-2.89149,4,,0,
9862,3465,La Paz 27,,43.2813,-2.98803,2,,0,
9863,3264,Otxanduri,,43.1668,-2.92494,3,,0,
9864,4964,Cabieces,,43.3221,-3.03819,2,,0,
9865,3812,Bentatxuri,,43.1258,-2.74482,3,,0,
9866,4577,Ibartxu,,43.2811,-2.63052,5,,0,
9867,0106,San Pedro Plaza,,43.2717,-2.94505,1,,0,
9868,3941,Udaletxea / Ayuntamiento,,43.2307,-2.84181,2,,0,
9869,5376,Larrondo Elotxelerri,,43.2971,-2.91323,2,,0,
9870,4072,Pontón Urarte,,43.1767,-3.08956,3,,0,
9871,5085,Cotarros,,43.2698,-3.15392,3,,0,
9872,4620,Okoriko,,43.2918,-2.76089,3,,0,
9873,3201,Zulueta,,43.3359,-2.49816,5,,0,
9874,3787,Arkulanda,,43.1558,-2.87816,3,,0,
9875,3799,Indusi,,43.1198,-2.73465,3,,0,
9876,5352,Mezo 63 Saliturri,,43.3154,-2.97367,2,,0,
9877,5330,Altzaga - Erandiogoikoa Beititbekoa,,43.302,-2.96011,2,,0,
9878,4005,Fika,,43.3109,-2.80917,3,,0,
9879,3289,Bentako Erreka,,43.1884,-2.89786,2,,0,
9880,4494,Irubide,,43.4206,-2.90836,3,,0,
9881,3275,Madariaga,,43.3417,-2.77896,3,,0,
9882,4517,Zengotita,,43.1976,-2.5583,5,,0,
9883,3418,El Valle,,43.1194,-3.03973,4,,0,
9884,3911,Mandaluiz,,43.3398,-2.79,3,,0,
9885,4866,Begiratokia / Mirador,,43.3182,-3.01507,2,,0,
9886,0302,Jesus Galindez Colegio Alemán,,43.2592,-2.90899,1,,0,
9887,3858,Kukullaga,,43.2467,-2.88876,2,,0,
9888,5038,Los Baños,,43.3106,-2.99945,2,,0,
9889,3284,Aixarte Goikoa,,43.2029,-2.8969,2,,0,
9890,5256,Mungialde Etorbidea 4,,43.2923,-2.8883,2,,0,
9891,4550,Plazakola,,43.2969,-2.47615,5,,0,
9892,4476,Zubi Ziku,,43.2062,-2.77136,3,,0,
9893,4597,Meñakabarrena,,43.3501,-2.79886,3,,0,
9894,3158,San Pedro Geralekua / Apeadero,,43.2216,-2.73474,3,,0,
9895,5159,Martzaa,,43.1237,-2.58684,5,,0,
9896,5042,Gran Vía 55 Zahar - Egoitza / Asilo,,43.3078,-2.99792,2,,0,
9897,5521,La Cuesta 82,,43.3469,-3.09062,3,,0,
9898,3220,Astorkigane,,43.2725,-2.60731,5,,0,
9899,3291,Aixarte Goikoa,,43.2022,-2.89717,2,,0,
9900,0223,Zumalakarregi Panera,,43.265,-2.91851,1,,0,
9901,3129,Las Carreras Ambrosio De Los Heros 29,,43.3184,-3.09544,3,,0,
9902,4986,Iparragirre Repsol,,43.343,-3.06103,2,,0,
9903,1011,Bolueta Gasolindegia / Gasolinera,,43.2468,-2.91188,1,,0,
9904,5522,Valle,,43.3422,-3.08305,3,,0,
9905,4614,Elosu,,43.1718,-2.89925,3,,0,
9906,5328,Altzaga - Erandiogoikoa Arriaga,,43.3032,-2.96622,2,,0,
9907,5452,Ospitale Psikiatrikoa / Hospital Psiquiátrico,,43.2899,-2.85406,2,,0,
9908,3622,Gardotza,,43.3189,-2.45566,5,,0,
9909,4047,Muruetagane,,43.3594,-2.63789,5,,0,
9910,4455,Telleria Biribilgunea / Rotonda,,43.3372,-2.99684,2,,0,
9911,5348,Mezo 32 Juanena,,43.3166,-2.98097,2,,0,
9912,3764,Santa Krutz,,43.1611,-2.88315,3,,0,
9913,4030,Sertutxa,,43.3595,-2.86802,3,,0,
9914,3521,Max Center N - 634,,43.2885,-3.00832,2,,0,
9915,4829,Unibaso,,43.0973,-2.87789,4,,0,
9916,4670,Elgezabal Hornigailua / Surtidor,,43.3368,-2.83539,3,,0,
9917,5465,Barrutia,,43.3244,-2.66732,5,,0,
9918,3567,Etxerre,,43.2312,-2.86789,2,,0,
9919,3560,Bilbondo,,43.2292,-2.87966,2,,0,
9920,3044,Garibai,,43.0647,-2.48962,5,,0,
9921,3177,Gudari,,43.2199,-2.73622,3,,0,
9922,1035,Gran Vía 79 Viajes Ecuador,,43.2646,-2.94274,1,,0,
9923,3841,Natxitua,,43.3811,-2.61387,5,,0,
9924,3645,Berriz - Olakueta,,43.1686,-2.57251,5,,0,
9925,5520,San Mamés,,43.3501,-3.09597,3,,0,
9926,4235,Lambarri,,43.2063,-3.08343,3,,0,
9927,5533,Uarka,,43.3188,-2.65436,5,,0,
9928,4204,Las Mercedes Aparkalekua / Aparcamiento,,43.328,-3.01172,2,,0,
9929,4246,Euskadi Plaza,,43.2125,-3.09561,3,,0,
9930,3887,Gurutziaga,,43.128,-2.53949,5,,0,
9931,5123,Dobaran,,43.3664,-2.92266,3,,0,
9932,4853,Bide Zabala Sukarrieta,,43.3963,-2.69811,4,,0,
9933,3417,Zerrabe,,43.1063,-3.04497,4,,0,
9934,4603,San Bartolomé Chakala,,43.1761,-2.9024,3,,0,
9935,5129,Aita Gotzon Metro Urduliz,,43.3777,-2.95602,3,,0,
9936,5477,Akiñena,,43.1833,-2.6626,4,,0,
9937,3768,Olatzar,,43.1524,-2.87054,3,,0,
9938,3548,Kareaga Goikoa 52 Udaletxea / Ayuntamiento,,43.2354,-2.89137,2,,0,
9939,9015,Triano,,43.2956,-3.06823,2,,0,
9940,0815,Autonomía 61 Lantik,,43.2579,-2.94818,1,,0,
9941,4486,Goiko Errota,,43.4247,-2.90105,3,,0,
9942,3345,Lutxana Eliza / Iglesia,,43.2906,-2.97934,2,,0,
9943,4527,Dokaitz / Donagarai,,43.2133,-2.538,5,,0,
9944,5506,Aldanondo Elkartegia,,43.2415,-2.99485,2,,0,
9945,4843,Zapateria,,43.109,-2.91077,4,,0,
9946,1043,Lutxana Ribera De Elorrieta,,43.2884,-2.96912,1,,0,
9947,3119,Trañabarren,,43.1668,-2.61061,4,,0,
9948,5016,Udaletxea / Ayuntamiento,,43.3105,-3.05721,2,,0,
9949,3346,Buen Pastor 76,,43.2901,-2.97656,2,,0,
9950,3777,Undarraga,,43.1392,-2.81083,3,,0,
9951,3796,Uriondo,,43.1626,-2.88516,3,,0,
9952,4788,El Pobal,,43.2999,-3.12394,3,,0,
9953,4197,San Martin Trinitarios,,43.354,-3.01298,2,,0,
9954,4294,Ibinaga,,43.3935,-2.63284,5,,0,
9955,3880,San Pío X,,43.1306,-2.54556,5,,0,
9956,4928,Causo,,43.2999,-3.02703,2,,0,
9957,1036,Santa Marina Ospitalea,,43.2623,-2.88307,1,,0,
9958,4619,Gerekiz,,43.2999,-2.74002,3,,0,
9959,3281,Urgoiti Geltokia / Estación,,43.2101,-2.88827,2,,0,
9960,4090,Azkarai,,43.1882,-3.04513,3,,0,
9961,3440,Bitorika,,43.1487,-2.95189,4,,0,
9962,1041,Las Delicias,,43.2551,-2.97194,1,,0,
9963,5551,Iturritxu Komentua / Convento,,43.2671,-2.50001,5,,0,
9964,5070,Sertutxa,,43.3817,-2.97923,3,,0,
9965,4213,Amaia 29 Anbulatorioa,,43.3238,-3.00842,2,,0,
9966,5460,Elejalde,,43.3341,-2.67677,4,,0,
9967,3872,L. Leguizamon Industrialdea Bidegurutzea / Cruce,,43.2487,-2.89467,2,,0,
9968,9011,El Campillo San Miguel,,43.3085,-3.07654,3,,0,
9969,4338,Kizkibil Vista Alegre,,43.2633,-2.80243,3,,0,
9970,4689,Llona Cruce Meñaka,,43.3445,-2.81543,3,,0,
9971,5262,Islabe,,43.3085,-2.88279,2,,0,
9972,3757,Olabarri,,43.1032,-2.75121,4,,0,
9973,4098,Mazukera,,43.1582,-3.10553,3,,0,
9974,4901,Aspaldiko Egoitza / Residencia,,43.32,-3.0307,2,,0,
9975,4260,Artxube,,43.2008,-3.07095,3,,0,
9976,5140,Institutua / Instituto,,43.1913,-3.19079,4,,0,
9977,4019,Udaletxea,,43.1937,-2.61146,4,,0,
9978,5448,Teknologia - Parkea Itp,,43.2917,-2.85748,2,,0,
9979,3198,Zulueta,,43.3358,-2.49812,5,,0,
9981,0528,Atxuri 3,,43.2553,-2.92236,1,,0,
9982,5120,Brioketenes,,43.37,-2.94281,3,,0,
9983,1024,Egirletagoikoa Gasolindegia / Gasolinera,,43.2746,-2.90309,1,,0,
9984,5015,Urioste,,43.3095,-3.04033,2,,0,
9985,3599,Etxetxubarri Mikel Deuna,,43.4197,-2.7375,4,,0,
9986,3459,Gorostiola,,43.1602,-3.02578,4,,0,
9987,4186,Zugazarte 35 Reparadoras,,43.3315,-3.01224,2,,0,
9988,4649,Elexalde,,43.2925,-2.70784,4,,0,
9989,3292,Aixarte Bekoa Ikastola,,43.2043,-2.89262,2,,0,
9990,5150,Iturralde,,43.1052,-2.58297,5,,0,
9991,4200,Bolue 3,,43.3505,-3.00866,2,,0,
9992,3503,Olarte El Regato Ikastetxea,,43.2673,-3.00279,2,,0,
9993,4746,Las Acacias,,43.3204,-3.1298,3,,0,
9994,4253,Olabarrieta Las Jarretas,,43.2097,-3.04107,3,,0,
9995,5307,Sakoni,,43.2997,-2.95784,2,,0,
9996,4373,Modesene Hilerria / Cementerio,,43.3555,-2.91166,3,,0,
9997,4201,Arene 22,,43.3484,-3.00586,2,,0,
9998,3791,Elorrebieta,,43.1704,-2.89645,3,,0,
9999,4353,Gaztelu,,43.2717,-2.78414,3,,0,
